stop_name,stop_id,stop_lat,stop_lon
Dietikon Stoffelbach,8502186,47.393406,8.398943
Rudolfstetten Hofacker,8502187,47.364693,8.377094999999999
Zufikon Hammergut,8502188,47.355835,8.354728
Horgen Oberdorf,8502208,47.258747,8.589799000000001
Oberrieden Dorf,8502209,47.276722,8.577636
Urdorf,8502220,47.390879999999996,8.434713
Birmensdorf ZH,8502221,47.357433,8.437543
Bonstetten-Wettswil,8502222,47.325897,8.468176
Hedingen,8502223,47.298782,8.445950999999999
Affoltern am Albis,8502224,47.276066,8.44658
Zufikon Belvédère,8502268,47.357582,8.359237
Bergfrieden,8502270,47.397713,8.399086
Zufikon,8502274,47.352524,8.35471
Widen Heinrüti,8502275,47.36206,8.354861999999999
Rudolfstetten,8502277,47.370026,8.381803
Reppischhof,8502278,47.38472,8.396346000000001
"Zürich Wollishofen, Bahnhof",8502495,47.3477,8.533313
"Spreitenbach, Raiacker",8502508,47.415447,8.377185
"Unterlunkhofen, Breitenäcker",8502553,47.32216,8.380473
"Waldegg, Birmensdorferstrasse",8502559,47.3683,8.463469
"Berikon, Kirche",8502560,47.35105,8.371417999999998
"Rottenschwil, Hecht",8502570,47.319057,8.372092
"Zürich, Goldbrunnenplatz",8502572,47.370293,8.513917999999999
"Affoltern a. A., Stigeli",8502574,47.278465000000004,8.459103
"Widen, Dorf",8502575,47.367573,8.363594
"Bellikon, Post",8502750,47.389507,8.343372
"Langnau a.A., Albispasshöhe",8502762,47.27615,8.520691000000001
"Hausen am Albis, Riedmatt",8502763,47.262978000000004,8.517241499999999
"Hausen am Albis, Tüfenbach",8502764,47.259014,8.522038
"Aeugst am Albis, Dorf",8502771,47.26783,8.485342
"Gattikon, Obstgarten",8502776,47.284725,8.551117
"Ottenbach, Post",8502779,47.281647,8.404521
"Aesch ZH, Gemeindehaus",8502876,47.338207000000004,8.438702000000001
"Jonen, Post",8502879,47.29618,8.395511
"Zwillikon, Gemeindeplatz",8502883,47.287395000000004,8.432189
"Bonstetten, Dorfplatz",8502885,47.315086,8.46778
"Oberwil-Lieli, Oberwil Post",8502894,47.337165999999996,8.386393
"Birmensdorf ZH, Zentrum",8502950,47.353935,8.437175
"Affoltern a. A., Kronenplatz",8502953,47.281223,8.454413
"Oberlunkhofen, Post",8502955,47.31338,8.388683
"Hausen am Albis, Heisch",8502963,47.249054,8.529764
"Oberwil-Lieli, Lieli Dorf",8502979,47.34129,8.396903
"Langnau am Albis, Unteralbis",8502992,47.285767,8.527896
Zürich Stadelhofen,8503003,47.366609999999994,8.548467
Zürich Tiefenbrunnen,8503004,47.350124,8.561376
Zürich Wollishofen,8503009,47.347443,8.533591
Zürich Enge,8503010,47.364098,8.530807000000001
Zürich Wiedikon,8503011,47.37147,8.523458
Zürich Binz,8503051,47.362633,8.518428
Zürich Friesenberg,8503052,47.364779999999996,8.507944
Zürich Schweighof,8503053,47.364986,8.503048
Zürich Triemli,8503054,47.364998,8.495197000000001
Uitikon Waldegg,8503055,47.365837,8.465983
Ringlikon,8503056,47.36023,8.477374000000001
Uetliberg,8503057,47.352367,8.487651
Zürich Stadelhofen FB,8503059,47.366356,8.548125
Langwies ZH,8503061,47.296046999999994,8.694389
Egg,8503062,47.301505999999996,8.689610499999999
Hinteregg,8503063,47.30574,8.684346000000001
Scheuren,8503064,47.322598,8.659544
Zumikon,8503066,47.331688,8.623809
Zollikerberg,8503067,47.346053999999995,8.603399000000001
Maiacher,8503068,47.328182,8.631067
Neuhaus bei Hinteregg,8503072,47.313347,8.672004
Neue Forch,8503074,47.325813000000004,8.63785
Waltikon,8503075,47.336796,8.617026
Spital Zollikerberg,8503077,47.34732,8.596796000000001
Waldburg,8503078,47.345473999999996,8.593022999999999
Felsenegg,8503081,47.310143,8.507414
Adliswil (Luftseilbahnstation),8503082,47.31317,8.520053
"Zürich, Römerhof",8503083,47.368088,8.56028
"Zürich, Dolder",8503084,47.3732,8.574527
Zürich Brunau,8503086,47.352123,8.526234
Zürich Saalsporthalle,8503087,47.357407,8.522146000000001
Wildpark-Höfli,8503089,47.29657,8.535648
Zürich Selnau,8503090,47.37294,8.532036999999999
Zürich Giesshübel,8503091,47.362457,8.52185
Zürich Manegg,8503093,47.33838,8.519675999999999
Zürich Leimbach,8503094,47.334602000000004,8.519604
Sood-Oberleimbach,8503095,47.31957,8.521436999999999
Adliswil,8503096,47.312305,8.524168
Langnau-Gattikon,8503097,47.286877000000004,8.544021
Sihlwald,8503098,47.268276,8.557495
Sihlau,8503099,47.303158,8.525246000000001
Zollikon,8503100,47.33733,8.569721000000001
Küsnacht ZH,8503101,47.31915,8.580618
Erlenbach ZH,8503102,47.305786,8.591505
Herrliberg-Feldmeilen,8503103,47.281826,8.612715
Meilen,8503104,47.269814000000004,8.64429
Winkel am Zürichsee,8503111,47.297203,8.598979
Küsnacht Goldbach,8503141,47.326855,8.575955
"Volketswil, Dorf",8503150,47.389587,8.693222
"Volketswil, Zentrum",8503151,47.389168,8.681507
"Uster, Brandschenke",8503152,47.36114,8.710739
"Volketswil, Volkiland Chliriet",8503154,47.381904999999996,8.667557
"Volketswil, Chrummacher",8503155,47.379707,8.683466000000001
"Volketswil, Hegnau",8503156,47.38839,8.676234
"Gutenswil, Unterdorf",8503157,47.384903,8.714494
"Riedikon, Chis/Naturstation",8503168,47.326355,8.710092
"Riedikon, Dorf",8503189,47.332207000000004,8.711331
Kilchberg,8503200,47.32443,8.548
Rüschlikon,8503201,47.307133,8.555150999999999
Thalwil,8503202,47.295975,8.564753999999999
"Uster, Hegetsberg",8503253,47.349342,8.733224
"Uster, Post Niederuster",8503254,47.34454,8.702178
Oberglatt,8503312,47.47020300000001,8.510603
Niederhasli,8503314,47.47833,8.488693
Dielsdorf,8503315,47.482414,8.459417
Steinmaur,8503316,47.489979999999996,8.44684
"Kindhausen ZH, Geeren",8503350,47.408283000000004,8.683637
"Bisikon, Dorf",8503351,47.41252,8.695414
"Effretikon, Eselriet",8503370,47.42382,8.701064
"Illnau, Löwen",8503371,47.416332000000004,8.717422500000001
"Effretikon, Wattspitz",8503372,47.42712,8.694119
"Grafstal, Unterdorf",8503374,47.44518,8.701253
Ottikon b. Kemptthal,8503376,47.435314,8.716937
"Lindau, Dorf",8503377,47.441475,8.671492
"Tagelswangen, Dorf",8503378,47.430405,8.671923
"Winterberg ZH, Dorf",8503380,47.456406,8.693060000000001
"Grafstal, Thalegg",8503381,47.442646,8.704118
"Illnau, Weisslingerstrasse",8503382,47.407932,8.727052
Zürich Landesmuseum,8503446,47.378845,8.541712
Zürich Storchen,8503447,47.37103,8.541964
Zürich Enge Hafen,8503449,47.359140000000004,8.537167
Zürich Central (Polybahn),8503499,47.37654000000001,8.544039
Zürich Polyterrasse,8503500,47.376858,8.546401
Otelfingen Golfpark,8503525,47.45581,8.402096
Regensdorf-Watt,8503526,47.436565,8.472064999999999
Buchs-Dällikon,8503527,47.4534,8.4355755
Otelfingen,8503528,47.454937,8.3875065
"Birmensdorf ZH, Landikon Bach",8503551,47.35229,8.461699000000001
"Uster, Sportzentrum",8503565,47.358475,8.728876
"Uster, Spital",8503567,47.35385,8.723495
"Birmensdorf ZH, Sternen/WSL",8503578,47.360096,8.456273
"Birmensdorf ZH, Obere Risi",8503579,47.359455,8.450792999999999
"Uitikon, Schlössli",8503580,47.368107,8.447856
"Arni AG, Dorf",8503598,47.318394,8.419711
"Zürich, Triemli",8503610,47.36815,8.495377000000001
"Uster, See",8503633,47.343388,8.690750999999999
Zürich Bürkliplatz,8503651,47.366009999999996,8.540787
Zürichhorn Casino,8503653,47.352623,8.553129
Zollikon ZSG,8503655,47.338684,8.56752
Küsnacht ZSG,8503657,47.319016,8.577914
Erlenbach ZSG,8503659,47.30303,8.589305
Herrliberg ZSG,8503660,47.28348,8.609777000000001
Meilen ZSG,8503661,47.26755,8.640328
Horgen ZSG,8503672,47.262352,8.597596000000001
Oberrieden ZSG,8503673,47.278625,8.581928999999999
Thalwil ZSG,8503674,47.29669000000001,8.56805
Rüschlikon ZSG,8503675,47.309771999999995,8.558385000000001
Kilchberg Bendlikon,8503677,47.322556,8.551782000000001
Zürich Wollishofen ZSG,8503681,47.345535,8.536699
Küsnacht Heslibach,8503682,47.308640000000004,8.583923
"Stallikon, Wolfenhof",8503689,47.294434,8.485738000000001
"Stallikon, Dorf",8503690,47.326775,8.490337
"Stallikon, Bleiki",8503691,47.333763,8.488819
"Wettswil a.A., Dorf",8503692,47.337715,8.474347
"Wettswil a.A., Heidenchilen",8503693,47.345627,8.466694
"Stallikon, Gamlikon",8503694,47.31146,8.493346
"Hausen am Albis, Türlersee",8503695,47.267513,8.512607000000001
"Stallikon, Sellenbüren",8503696,47.343296,8.482073
"Aeugstertal, Kloster",8503697,47.284306,8.48686
"Birmensdorf ZH, Untere Risi",8503698,47.359707,8.447047
"Uitikon, Dorf",8503699,47.370537,8.454144
"Bassersdorf, Bahnhof",8503700,47.438717,8.626136
"Waldegg, Post",8503709,47.368332,8.462005
"Bülach, Mettmenriet",8503772,47.512474,8.543464
"Bachenbülach, alte Post",8503781,47.505253,8.54597
"Höri, Gemeindehaus",8503782,47.50806400000001,8.51019
"Uster, Schlyffi",8503785,47.345726,8.6973715
"Winkel, Zentrum",8503788,47.492374,8.552339
"Thalwil, Ebnet",8503791,47.28904,8.557350999999999
"Winkel, Bühlhof",8503857,47.483078000000006,8.560765
"Riedt b. Neerach, Riedacher",8503860,47.50103,8.474032000000001
"Langnau a.A.,Schwerzi-Wildpark",8503862,47.287243,8.533519
"Höri, Oberhöri",8503871,47.50374,8.498647
"Uster, Reithalle",8503872,47.356297,8.726783
"Widen, Imbismatt",8503879,47.37244000000001,8.356524
"Niederhasli, Hofstetterstrasse",8503885,47.482258,8.493795
"Langnau am Albis,Oberrenggstr.",8503887,47.28399,8.528731
"Horgenberg, Moorschwand",8503896,47.252724,8.586582
"Horgen, Stotzweid/Feller",8503898,47.250209999999996,8.597677000000001
"Freudwil, Im Dörfli",8503988,47.374794,8.734275
"Winkel, Oberrüti",8503989,47.4799,8.563684
"Embrach, Gemeindehaus",8506889,47.50253,8.594694
"Lufingen, Dorf",8506895,47.488663,8.593653
"Embrach, Post",8506897,47.505238,8.5937605
"Oberembrach, Dorf",8506898,47.48699000000001,8.619569
"Brütten, Zentrum",8506960,47.47204,8.676486
Dietikon Schöneggstrasse,8517376,47.401993,8.400909
"Zürich, Rigiblick",8530473,47.38733,8.553417
Horgen Autoquai,8530643,47.259228,8.604639
Meilen Autoquai,8530644,47.26798,8.638478
Maur (See),8530645,47.340282,8.679019
Uster (See),8530646,47.343224,8.690113
Fällanden (See),8530647,47.365759999999995,8.652707000000001
Greifensee (See),8530648,47.364536,8.674923
Mönchaltorf (See),8530696,47.32598,8.699923
Zürich Balgrist,8530811,47.35458,8.575021000000001
Zürich Hegibachplatz,8530812,47.36169,8.560621000000001
Zürich Kreuzplatz,8530813,47.364876,8.554082000000001
Zürich Limmatquai,8530822,47.37323,8.542628
"Oberhasli, Industrie",8557033,47.459267,8.490014
"Niederhasli, Nassenwil",8557034,47.465614,8.471445
"Affoltern a. A., Lindenmoos",8557097,47.270804999999996,8.4441185
"Schlieren, Kampstrasse",8557101,47.39346,8.44834
"Jonen, Weingasse",8570706,47.293427,8.398017
"Berikon-Widen, Bahnhof",8572560,47.361796999999996,8.3667555
"Bellikon, Rehaklinik",8572561,47.388535,8.344037
"Bremgarten AG, Badenerstrasse",8572568,47.356388,8.348519999999999
"Birmensdorf ZH, Altenberg",8572595,47.347126,8.420565
"Oberwil-Lieli, Englisächer",8572596,47.341476,8.401063
"Oberwil-Lieli, im Moos",8572597,47.341118,8.394029
"Berikon, Mattenhof",8572598,47.344124,8.380069
"Berikon, Kreisschule",8572599,47.356277,8.366298
"Zufikon, Emaus",8572600,47.344646000000004,8.351988
"Zufikon, Algier",8572601,47.34174,8.354637
"Oberlunkhofen, Kellerämterst.",8572602,47.313365999999995,8.388917
"Jonen, Käppeli",8572603,47.29947,8.393858
"Obfelden, Bickwil",8572604,47.269764,8.423107
"Ottenbach, Hinterdorf",8572605,47.2839,8.402257
"Unterlunkhofen, Gemeindehaus",8572646,47.32063,8.380158
"Rottenschwil, Seematten",8572647,47.316326000000004,8.364419999999999
"Bremgarten AG, Bahnhof",8572747,47.35169000000001,8.346175
"Langnau am Albis, Hinteralbis",8573158,47.274741999999996,8.517808
"Langnau am Albis, Mittelalbis",8573159,47.27579,8.52777
"Langnau am Albis, Dorf",8573160,47.28852,8.541145
"Langnau-Gattikon, Bahnhof",8573161,47.2867,8.543751
"Gattikon, Gattikerhof",8573162,47.28308,8.545988000000001
"Gattikon, Gattikerhöhe",8573163,47.285706,8.555114999999999
"Thalwil, Feldstrasse",8573164,47.291733,8.557737
"Thalwil, Schützenhaus",8573165,47.287754,8.562147999999999
"Thalwil, Mühlebachplatz",8573166,47.291435,8.565660000000001
"Thalwil, Zentrum",8573167,47.295273,8.564089
"Thalwil, Bahnhof",8573168,47.29616,8.564772
"Hausen am Albis, Grindlen",8573169,47.24392,8.525694999999999
"Rifferswil, Unterrifferswil",8573171,47.248234000000004,8.494496
"Hausen am Albis, Vollenweid",8573176,47.25962,8.510531
"Affoltern a. A., Bahnhof",8573178,47.27581,8.446607
"Zwillikon, Fehrenbach",8573193,47.286568,8.440767999999998
"Obfelden, Hirschen",8573195,47.268692,8.432818
"Zürich Flughafen, Bahnhof",8573205,47.45044,8.563728999999999
"Bachenbülach, Schmiede",8573206,47.500862,8.544991
"Winkel, Scheidweg",8573207,47.49695,8.545135
"Winkel, Schwärzen",8573208,47.491496999999995,8.548772999999999
"Winkel, Oberdorf",8573209,47.491222,8.555635
"Kloten, Zum Wilden Mann",8573211,47.453545,8.580195
"Kloten, Balsberg Hardacher",8573214,47.440247,8.571689
"Embrach, Oberdorf",8573225,47.50002,8.598952
"Embrach, Zürcherstrasse",8573226,47.499382000000004,8.5949545
"Lufingen, Unterdorf",8573228,47.490818,8.596761
"Lufingen, Hintermarchlen",8573229,47.481667,8.589933
"Lufingen, Augwil",8573230,47.476696000000004,8.592143
"Kloten, Freienberg",8573232,47.463122999999996,8.583267999999999
"Kloten, Kaserne Ost",8573233,47.45767,8.580392999999999
"Kloten, Hohrainli",8573234,47.459618,8.581669
"Oberglatt ZH, Mösli Hofstetten",8573236,47.479294,8.504495
"Oberglatt ZH, Bahnhof",8573237,47.470448,8.51072
"Oberglatt ZH, Rietli",8573238,47.474575,8.516424
"Oberglatt ZH, Zentrum",8573239,47.476345,8.520799
"Rümlang, Riedmatt",8573240,47.462353,8.527581
"Rümlang, Bahnhof",8573241,47.45395300000001,8.532639
"Rümlang, Rümelbach",8573242,47.449844,8.540265
"Glattbrugg, Unterriet",8573244,47.438034,8.562733
"Höri, Fuhrstrasse",8573260,47.50954,8.515302
"Niederglatt ZH, Nöschikon",8573261,47.495388,8.494999
"Niederglatt ZH,altes Schulhaus",8573262,47.493183,8.498314
"Niederglatt ZH, Zentrum",8573263,47.490818,8.503200999999999
"Niederhasli, Dorf",8573264,47.480637,8.485091
"Dielsdorf, Erlen",8573265,47.48346,8.471212
"Steinmaur, Obersteinmaur",8573273,47.49883,8.454746
"Steinmaur, Gemeindehaus",8573274,47.49355300000001,8.448511
"Steinmaur, Bahnhof",8573275,47.489509999999996,8.448108
"Dielsdorf, Wehntalerstrasse",8573276,47.483166,8.453291
"Dielsdorf, Bahnhof",8573277,47.482929999999996,8.458923
"Wermatswil, Ledi",8573503,47.3634,8.736781
"Uster, Bahnhof",8573504,47.351185,8.716838000000001
"Horgen, Altes Gemeindehaus",8573552,47.260253999999996,8.595637
"Horgen, Stocker",8573553,47.261517,8.588927
"Horgen Oberdorf, Bahnhof",8573554,47.258682,8.590247999999999
"Horgen, Bergli",8573555,47.257664,8.593212
"Horgen, Sunnehügeli",8573556,47.252686,8.596743
"Zürich Wiedikon, Bahnhof",8573710,47.37143,8.524185000000001
"Zürich, Sädlenweg",8573711,47.36823,8.485163
"Wettswil a.A., Bäumlisächer",8573712,47.342242999999996,8.470107
"Wettswil a.A., Grund",8573713,47.33187,8.47423
"Ringlikon, Langwis",8573714,47.35962,8.465121
"Stallikon, Aumüli",8573715,47.30209,8.4859085
"Stallikon, Tägerst",8573716,47.298775,8.487417
"Aeugstertal, Landhus",8573717,47.279903000000004,8.500649000000001
"Birmensdorf ZH, Aescherstrasse",8573719,47.35089,8.438325
"Arni AG, Stockacker",8573720,47.320034,8.423888999999999
"Oberlunkhofen, Waldegg",8573721,47.313427000000004,8.398817
"Oberlunkhofen, Oberdorf",8573722,47.312386,8.392762
"Oberlunkhofen, Dorfplatz",8573723,47.311398,8.390723
"Stallikon, Aegerten",8573724,47.320198,8.490606
"Islisberg, Dorf",8573725,47.32363,8.439349
"Bonstetten-Wettswil, Bahnhof",8573726,47.326298,8.468499000000001
"Bonstetten, Chrüzacher",8573728,47.316628,8.463064
"Bonstetten, Isenbach",8573729,47.314346,8.4725685
"Bonstetten, Lärchenhof",8573730,47.32424,8.472424499999999
"Stallikon, Diebis",8573731,47.349396,8.475892
"Aeugst am Albis, Müliberg",8573732,47.281234999999995,8.478533
"Aeugst am Albis, Höchweg",8573733,47.270866,8.480644
"Affoltern a. A., Lilienberg",8573734,47.27887,8.466262
"Uitikon, Wängi",8574610,47.375972999999995,8.447613
"Uitikon, Gläseren",8574615,47.373474,8.448619
"Uitikon, Roracher",8574658,47.372116,8.451404
"Uitikon, Halde",8574684,47.36926,8.458725
"Waldegg, Katholische Kirche",8574739,47.364933,8.462345
"Ringlikon, Dorf",8574780,47.358368,8.469505
"Ringlikon, Gättern",8574898,47.360058,8.467367
"Uitikon Waldegg, Bahnhof",8575014,47.366222,8.465032
"Effretikon, Vogelbuckstrasse",8575909,47.43463,8.6833315
"Effretikon, Bahnhof",8575918,47.42514,8.6861515
"Effretikon, Zentrum",8575919,47.428062,8.686385000000001
"Effretikon, Müselacher",8575920,47.429047,8.696599
"Effretikon, Lindenwiese",8575921,47.42602,8.699483
"Illnau, Kirche",8575923,47.4146,8.717395
"Illnau, Steinacher",8575924,47.411842,8.713747999999999
"Illnau, Wingert",8575925,47.410587,8.71187
"Illnau, Chrummenacher",8575926,47.405421999999994,8.719174
"Illnau, Bahnhof",8575927,47.40891,8.722569
"Tagelswangen, Oberwis",8575937,47.43137,8.678256
"Tagelswangen, Buckstrasse",8575938,47.433746,8.672992
"Lindau, Rigacher",8575939,47.440205,8.67751
"Effretikon, Langhag",8575940,47.43717,8.686277
"Lindau, Eschikon",8575941,47.44808,8.682289
"Winterberg ZH, Wältiwis",8575942,47.454006,8.696725
"Grafstal, Oberdorf",8575943,47.443687,8.698243
"Kemptthal, Bahnhof",8575944,47.453022,8.705546
"Effretikon, Girhalde",8575946,47.434345,8.691514999999999
"Uster, Talacker",8575957,47.343315000000004,8.716084
"Uster, im Hölzli",8575958,47.33945,8.714359
"Uster, Florastrasse",8575976,47.346546000000004,8.726397
"Uster, Oberuster",8575977,47.345238,8.730978
"Meilen, Bahnhof",8576080,47.26944,8.644883
"Meilen, Beugen",8576082,47.26727,8.650713
"Uster, Stadtpark",8576095,47.348156,8.715697
"Uster, Wil",8576097,47.3451,8.707801
"Uster, Turicum",8576099,47.348106,8.695045
"Volketswil, Hölzliwisen",8576128,47.380398,8.6782465
"Volketswil, Wallberg",8576129,47.389465,8.687068
"Volketswil, Huzlenstrasse",8576130,47.393173,8.6836815
"Volketswil, Eichstrasse",8576131,47.394787,8.682253
"Volketswil, Chapf",8576132,47.39322,8.67937
"Kindhausen ZH, Bodenacher",8576133,47.405066999999995,8.680069999999999
"Effretikon, Moosburg",8576135,47.42098,8.691811999999999
"Volketswil, In der Höh",8576139,47.38525,8.668384
"Volketswil, In der Au",8576140,47.389559999999996,8.688757
"Kloten, Kirchgasse",8576152,47.452915000000004,8.584346
"Kloten, Rankstrasse",8576153,47.451187,8.592053
"Kloten, Oberfeld",8576154,47.449085,8.597739
"Kloten, Grubenstrasse",8576155,47.447685,8.603247
"Bassersdorf, Talgüetli",8576158,47.445103,8.620485
"Bassersdorf, Schmitte",8576159,47.442944,8.628758
"Bassersdorf, Löwen",8576160,47.443584,8.62813
"Bassersdorf, Gemeindehaus",8576161,47.443554,8.629064
"Bassersdorf, Rietli",8576163,47.444687,8.636188
"Zufikon, Bachhalde",8576164,47.35024600000001,8.355913000000001
"Nürensdorf, Chrüzstrass",8576167,47.454243,8.6346245
Birchwil (Nürensdorf),8576168,47.457718,8.638765
"Nürensdorf, Oberwil",8576169,47.4641,8.639952000000001
"Nürensdorf, Berg",8576170,47.450752,8.651216499999999
"Breite b. Nürensdorf, Sternen",8576171,47.460827,8.659912
"Breite b. N'dorf,Grünenwaldstr",8576172,47.461926,8.661286
"Breite b. N'dorf, W'thurerstr.",8576173,47.461597,8.661107000000001
"Brütten, Hofacher",8576174,47.47097,8.670592999999998
"Brütten, Harossen",8576176,47.471466,8.682496
"Zürich Tiefenbrunnen, Bahnhof",8576182,47.350418,8.560999
"Zollikon, Seestrasse",8576183,47.342796,8.567323
"Zollikon, Bahnhof",8576184,47.33776500000001,8.569775
"Zollikon, Gemeindehaus",8576185,47.34075,8.5759735
"Zollikon, Höhestrasse",8576186,47.33985,8.581525
"Zollikon, Allmend",8576187,47.343327,8.583267999999999
"Zollikon, Schützenstrasse",8576188,47.3449,8.585882000000002
"Zollikon, Rebwiesstrasse",8576189,47.345703,8.588486999999999
"Zürich, Bellevue",8576193,47.367092,8.545116
"Zürich, Elektrowatt",8576194,47.357796,8.550228
"Zürich, Opernhaus",8576195,47.365414,8.547649
"Zürich, Kreuzstrasse",8576196,47.36339,8.549472999999999
"Zürich, Feldeggstrasse",8576197,47.360516,8.55206
"Zürich, Höschgasse",8576198,47.357994,8.554207
"Zürich, Fröhlichstrasse",8576199,47.35517,8.556902000000001
"Zürich, Wildbachstrasse",8576200,47.35228,8.559579
"Zollikon, Bahnübergang",8576201,47.34592,8.5661545
"Zollikon, Felbenstrasse",8576202,47.343204,8.569632
"Zollikon, Dufourplatz",8576203,47.340435,8.572614
"Zollikon, Beugi",8576204,47.33648,8.575084
"Zollikon, Goldhaldenplatz",8576205,47.335037,8.577518
"Küsnacht ZH, Bühlstrasse",8576206,47.331753000000006,8.579657000000001
"Küsnacht ZH, Goldbacherstrasse",8576207,47.329227,8.580465
"Küsnacht ZH, Boglerenstrasse",8576208,47.326285999999996,8.582307
"Küsnacht ZH, Schiedhaldenstr.",8576209,47.322975,8.582576
"Küsnacht ZH, Schiedhaldensteig",8576210,47.321365,8.586825
"Küsnacht ZH, Schübel",8576211,47.32165,8.589852
"Itschnach, Dorf",8576214,47.32779,8.602312
"Itschnach, Fallacher",8576215,47.329025,8.606085
"Küsnacht ZH, Oberwacht",8576216,47.3194,8.584508
"Küsnacht ZH, Ob. Heslibachstr.",8576217,47.316902,8.585549
"Küsnacht ZH, Bergstrasse",8576218,47.314423,8.589708
"Küsnacht ZH, Himmelistrasse",8576219,47.31384,8.592224
"Küsnacht ZH, Hesligenstrasse",8576220,47.31577,8.593204
"Küsnacht ZH, Ränkestrasse",8576221,47.314545,8.595279
"Küsnacht ZH, Allmend",8576222,47.31581,8.597237
"Küsnacht ZH, Bahnhof",8576223,47.31924,8.580869999999999
"Zumikon, Gössikon",8576224,47.332474,8.614772
"Zumikon, Waltikon",8576225,47.33611,8.618185
"Zumikon, Dorfzentrum",8576226,47.332977,8.622919
"Otelfingen, Bahnhof",8576235,47.45483400000001,8.387614
"Otelfingen, Post",8576236,47.460484,8.390139
"Otelfingen, Schule",8576237,47.462967,8.390075999999999
"Boppelsen, Dorf",8576238,47.470276,8.402239
"Boppelsen, Hand",8576239,47.46876500000001,8.407243
"Zürich, Meierhofplatz",8576240,47.40201,8.499374000000001
"Zürich, Heizenholz",8576241,47.41229600000001,8.483905
"Zürich, Grünwald",8576242,47.417384999999996,8.483169
"Regensdorf, Lettenhau",8576243,47.42579,8.471957000000002
"Regensdorf, Obstgarten",8576244,47.429077,8.469254
"Regensdorf, Zentrum",8576245,47.43101,8.466101
"Regensdorf, Ostring",8576246,47.431984,8.471077000000001
"Watt, Geerenweg",8576248,47.439003,8.47724
"Watt, Dorf",8576249,47.442223,8.480742999999999
"Watt, Schulhaus",8576250,47.443913,8.4780035
"Watt, Laubisser",8576251,47.447475,8.477778
"Watt, Haldensteig",8576252,47.449013,8.4710865
"Adlikon b. R., Dorf",8576253,47.448161999999996,8.466469
"Adlikon b. R., Sonnhalde",8576255,47.45200300000001,8.462211
"Adlikon b. R., Sonnhalde West",8576256,47.453303999999996,8.458914
"Buchs ZH, Petermoos",8576257,47.457190000000004,8.443436
"Buchs ZH, Linde",8576258,47.458458,8.440247
"Buchs ZH, Post",8576259,47.45666,8.437588
"Buchs-Dällikon, Bahnhof",8576260,47.453438,8.436411
"Zürich, Zehntenhausplatz",8576262,47.41922,8.506461999999999
"Zürich, Hungerbergstrasse",8576263,47.421368,8.501314
"Regensdorf, Chrüzächer",8576264,47.427753,8.473241999999999
"Regensdorf, Gemeindehaus",8576265,47.43352,8.468337
"Regensdorf, Dreispitz",8576269,47.438359999999996,8.464725999999999
"Regensdorf, Sportanlage Wisa.",8576270,47.437508,8.461214
"Dällikon, Seitenacker",8576271,47.438778000000006,8.444703
"Dällikon, Dorf",8576272,47.439735,8.439303
"Dänikon, Gemeindehaus",8576273,47.445879999999995,8.406838
Hüttikon,8576274,47.44612,8.38642
"Regensdorf, Holenbach",8576275,47.431217,8.460944
"Dällikon, Industrie",8576276,47.444736,8.438783
"Buchs ZH, Industrie",8576277,47.45074,8.438163000000001
"Regensdorf, Furtbächli",8576278,47.44449,8.466694
"Regensdorf, Hardhölzli",8576279,47.44161,8.465902999999999
"Regensdorf, Althard",8576280,47.437943,8.470538000000001
"Adlikon b. R., Ziegelhütte",8576281,47.452633,8.466074
"Dielsdorf, Altmoos",8576282,47.475986,8.454863000000001
"Dielsdorf, Dorfzentrum",8576283,47.481396000000004,8.453667999999999
"Dielsdorf, Bezirksgebäude",8576285,47.48198,8.452688
"Dielsdorf, Spital",8576286,47.481667,8.450460000000001
"Regensberg, Hirsmühle",8576287,47.482258,8.444649
"Regensberg, Höfli",8576288,47.480946,8.43677
"Regensberg, Dorf",8576289,47.48287,8.436258
"Zufikon, Schulanlage",8576480,47.34747700000001,8.358375
"Zufikon, Volg",8576496,47.34537,8.35709
"Zufikon, Haldenstrasse",8576498,47.343315000000004,8.356974000000001
"Wettswil a.A., Schürli",8576699,47.332916,8.477886
"Wettswil a.A., Beerimoos",8576743,47.329570000000004,8.480069
"Uster, Burgreben",8576788,47.343887,8.717089999999999
"Horgen, Waidli",8577867,47.254158000000004,8.605528
"Horgen, untere Mühle",8577912,47.259186,8.598099000000001
"Würenlos, Bettlen",8578679,47.445988,8.370878999999999
"Oberrieden, Bahnhof",8579186,47.279423,8.579153
"Oberrieden, Seehalde",8579188,47.27336,8.583124
"Horgen, Scheller",8579189,47.269141999999995,8.58687
"Horgen, Plattenhof",8579190,47.265423,8.588047
"Horgen, Spital",8579192,47.263363,8.589025999999999
"Wettswil a.A., Dettenbühl",8579434,47.337715,8.474544999999999
"Wettswil a.A., Chilenholzstr.",8579440,47.33408,8.4787035
"Wettswil a.A., Oberhusen",8579442,47.337685,8.477851
"Wettswil a.A., Eggächer",8579443,47.33978,8.474715
"Wettswil a.A., Heissächerstr.",8579453,47.34168,8.474086999999999
"Wettswil a.A., Strumbergächer",8579472,47.34268,8.472254
"Wettswil a.A., Rehweid",8579495,47.343773,8.470691
"Wettswil a.A., Langächer",8579497,47.34361,8.468966499999999
"Kloten, Sporthalle Ruebisbach",8579843,47.461956,8.5771055
"Fehraltorf, Schrännenbrunnen",8579869,47.395340000000004,8.736233
"Kloten, Weinbergstrasse",8579967,47.46534000000001,8.581642
"Kloten, Egetswil",8579968,47.469555,8.584669
"Kloten, Chanzler",8579969,47.46709,8.582028
"Bonstetten, Sunnenberg",8579991,47.312447,8.473394
"Wettswil a.A., Moosstrasse",8579994,47.33501,8.474751
"Affoltern a. A., Bezirksspital",8580268,47.281197,8.457386999999999
"Zürich Flughafen, OPC",8580301,47.452652,8.565660000000001
"Berikon, Stalden",8580317,47.34764000000001,8.376503
"Kloten, Bramen",8580432,47.443913,8.578425
"Kloten, Graswinkel",8580433,47.45094,8.596482
"Kloten, Lindenstrasse",8580434,47.452244,8.587149
"Kloten, Mühle",8580435,47.450108,8.591928
"Kloten, Säntisstrasse",8580437,47.451565,8.591028999999999
"Kloten, Wohnheim",8580438,47.453625,8.593257000000001
"Glattbrugg, Riethofstrasse",8580443,47.43638,8.568922
"Zürich Oerlikon, Bahnhof",8580449,47.411495,8.544792999999999
"Zürich, Escher-Wyss-Platz",8580522,47.390797,8.522397999999999
"Opfikon, Schulstrasse",8580536,47.43084,8.573719
"Bülach, Engelwis",8580617,47.51119,8.53713
"Bachenbülach, Bramenländli",8580619,47.503525,8.538963
"Bachenbülach, Bramenstrasse",8580620,47.502956,8.537175
"Horgen, Baumgärtlihof",8580724,47.25899999999999,8.599689
"Widen, Burkertsmatt",8580728,47.36571,8.365236999999999
"Berikon, Kesslernmatt",8580729,47.36458,8.366082
"Bremgarten AG, Bibenlos",8580847,47.35384000000001,8.349994
"Uster, Ackerstrasse",8580872,47.353004,8.712705999999999
"Uster, Krämeracker",8580874,47.351738,8.705924000000001
"Uster, Sonnenberg",8580877,47.350184999999996,8.702618
"Uster, Stadthaus",8580879,47.347977,8.718635
"Zürich, Schaufelbergerstrasse",8580912,47.368904,8.501844
"Affoltern a. A., Friedhof",8581015,47.282665,8.446499000000001
"Stallikon, Loomatt",8581059,47.339413,8.485297000000001
"Oberwil-Lieli, Bündtenmättli",8581346,47.339596,8.38289
"Uster, Seeweg",8581538,47.346138,8.6965275
"Uster, Apothekerstrasse",8581539,47.346184,8.715069
"Uster, Wildsbergstrasse",8581540,47.351223,8.699644000000001
"Uster, Jungholz",8581541,47.350327,8.695971
"Uster, Burgstrasse",8581542,47.343059999999994,8.720044999999999
"Uster, Krone",8581543,47.341125,8.725669
"Uster, Bildungszentrum",8581544,47.347515,8.709607
"Uster, Jugendhaus",8581545,47.350048,8.712437
"Uster, Nossikon",8581546,47.340126,8.729549
"Uster, Poststrasse",8581548,47.349117,8.717
"Bonstetten, Lätten",8581666,47.3189,8.455788
"Wettswil a.A., Schachenbach",8581967,47.327785,8.473422
"Bülach, Einkaufszentrum Süd",8582005,47.50947,8.539062
"Zwillikon, Lochhof",8582104,47.28855,8.422496
"Bremgarten AG, Zelgli",8582462,47.347557,8.348197
"Bremgarten AG, Zufikerstrasse",8582529,47.35226,8.350064999999999
"Oberglatt ZH, Bälen",8582662,47.480125,8.523368
"Niederglatt ZH, Sonnenbergstr.",8582720,47.49049,8.502958
"Hedingen, Hausacker",8582721,47.294895000000004,8.449185
"Hedingen, Güpf",8582722,47.299725,8.448233
"Affoltern a. A., Blitzgbach",8582723,47.285522,8.453102000000001
"Bülach, Cholplatz",8582739,47.509903,8.544541
"Riedt b. Neerach, Storchen",8582751,47.50039,8.474024
"Birmensdorf ZH, Weissenbrunnen",8582752,47.35607,8.445960000000001
"Affoltern a. A., Weinberg",8582763,47.279759999999996,8.461312
"Ottenbach, Engelwiese",8582790,47.281826,8.404871
"Aeugst am Albis, Grossacher",8583047,47.266106,8.491208
"Stallikon, Langfuren",8583053,47.323627,8.490167
"Jonen, Radmühle",8583071,47.301968,8.392996
"Islisberg, Räbacher",8583206,47.321636,8.435325
"Birmensdorf ZH, Ristet",8583214,47.365722999999996,8.429414
"Ottenbach, Geeren",8583363,47.284245,8.409192
"Waldegg, Leuen",8583613,47.36274,8.459633
"Steinmaur, Sünikon",8583692,47.490757,8.437389999999999
"Birmensdorf ZH, Landikon Dorf",8583731,47.352779999999996,8.461097
"Aesch ZH, Heligenmattstrasse",8583755,47.334526000000004,8.436331
"Oberglatt ZH, Pistenende",8583761,47.482468,8.527168
"Niederglatt ZH, Seeblerstrasse",8583769,47.487343,8.498476
"Winkel, Seebüel",8583774,47.49242,8.547191999999999
"Winkel, Wisental",8583775,47.479275,8.553749
"Bonstetten, Dorfstrasse",8583805,47.31687,8.462363
"Höri, Schulhaus",8583831,47.508635999999996,8.506345
"Rifferswil, Hausmatte",8583855,47.248385999999996,8.491685
"Affoltern a.A., Moosbach",8583890,47.272743,8.439860000000001
"Uster, Pfannenstielstrasse",8587010,47.346706,8.701513
Kindhausen AG,8587018,47.394176,8.375973
"Dietikon, Bahnhof",8587020,47.40583400000001,8.404521
"Zürich, Rote Fabrik",8587347,47.342729999999996,8.536016
"Zürich, Bahnhofplatz/HB",8587348,47.37724,8.53934
"Zürich, Bahnhofquai/HB",8587349,47.377563,8.5417385
"Kloten, Bahnhof",8587420,47.448966999999996,8.583888
"Wallisellen, Glatt (Bus)",8587651,47.409209999999995,8.595547999999999
"Zürich, Altried",8587652,47.40563,8.591002
"Dübendorf, Bahnhof",8587653,47.39973,8.623638
"Glattbrugg, Glatthof",8587654,47.434509999999996,8.567628
"Wallisellen, Bahnhof",8587655,47.412724,8.592528999999999
"Uster, Gschwaderstrasse",8587680,47.355183000000004,8.709247999999999
"Kloten Balsberg, Bahnhof",8587799,47.441612,8.568607
"Volketswil, Giessen",8587858,47.38888,8.696302000000001
"Uster, Loren",8587859,47.358025,8.711619
"Uster, Strick",8587860,47.35645,8.712760000000001
"Uster, Zentralstrasse",8587952,47.347159999999995,8.717925
"Erlenbach ZH, Alterswohnheim",8587964,47.307293,8.594767
"Erlenbach ZH, Bahnhof",8587965,47.305817,8.591244999999999
"Erlenbach ZH, Bahnhofstrasse",8587966,47.30379,8.591344
"Erlenbach ZH, Im Bindschädler",8587967,47.29558,8.603938000000001
"Erlenbach ZH, Chapf",8587968,47.30787700000001,8.609032000000001
"Erlenbach ZH, Erlenhöhe",8587969,47.306000000000004,8.602393
"Erlenbach ZH, Föhrenstrasse",8587970,47.307083,8.607855
"Erlenbach ZH, Im Loo",8587971,47.304916,8.593625
"Erlenbach ZH, Im Streuli",8587972,47.29705,8.6064
"Erlenbach ZH, Im Vogelsang",8587973,47.305782,8.596635000000001
"Erlenbach ZH,Kirchgemeindehaus",8587974,47.30279,8.59332
"Erlenbach ZH, Pflugstein",8587975,47.296894,8.608672
"Erlenbach ZH, Rankstrasse",8587976,47.307629999999996,8.597325999999999
"Erlenbach ZH, Rebstrasse",8587977,47.29912,8.602186
"Erlenbach ZH, Sandfelsenstr.",8587978,47.307255,8.600102
"Erlenbach ZH, Schulhaus",8587979,47.302357,8.597901
"Erlenbach ZH, Schützenhaus",8587980,47.307182,8.613505
"Meilen, Eichholz",8587981,47.282196,8.623908
"Meilen, Zentrum Feldmeilen",8587982,47.278645000000004,8.6159935
"Meilen, Schulhaus Feld",8587983,47.276512,8.622955000000001
"Meilen, Schwabach",8587984,47.27538300000001,8.625731
"Herrliberg, Alterssiedlung",8587992,47.287052,8.615067999999999
"Herrliberg, Aryanastrasse",8587993,47.288956,8.617413
"Herrliberg, Bergstrasse",8587994,47.294365,8.614341
"Herrliberg, Forchstrasse",8587996,47.28702,8.621293
"Herrliberg, Freudacherstrasse",8587997,47.295437,8.613298
"Herrliberg, Gartenstrasse",8587998,47.285767,8.612579
"Herrliberg, Grundhofstrasse",8587999,47.286144,8.617709
"Herrliberg, Grüt",8588000,47.290184,8.605861
"Herrliberg, Harzerstrasse",8588001,47.286705,8.618024
"Herrliberg, Holzwies",8588002,47.293407,8.608322
"Herrliberg, Humrigen",8588003,47.283752,8.620746
"Herrliberg, Pfarrgasse",8588005,47.287094,8.608906
"Herrliberg, Rietli",8588006,47.286755,8.625542999999999
"Herrliberg, Schulhaus",8588007,47.288612,8.613182
"Herrliberg, Sportplatz",8588008,47.2927,8.611798
"Herrliberg, Tennisplätze",8588009,47.290714,8.615768
"Herrliberg, Vogtei",8588010,47.289654,8.6097145
"Herrliberg-Feldmeilen, Bahnhof",8588011,47.281734,8.612796000000001
"Meilen, Allmend",8588014,47.271029999999996,8.648207000000001
"Meilen, Bezibüel/Chilchbüel",8588017,47.279167,8.663236
"Meilen, Bundi",8588019,47.281178000000004,8.667017999999999
"Meilen, Charrhalten",8588020,47.277027000000004,8.6635685
"Meilen, Hallenbad",8588023,47.272304999999996,8.64535
"Meilen, Halten",8588024,47.271328000000004,8.657388000000001
"Meilen, Hohenegg",8588025,47.273999999999994,8.66099
"Meilen, Ormis",8588027,47.270794,8.653022
"Meilen, Parkresidenz",8588028,47.2701,8.638586
"Meilen, Plätzli",8588029,47.2741,8.6253
"Meilen, Rebbergstrasse",8588030,47.27841,8.619173
"Meilen, Roren",8588031,47.282897999999996,8.669919
"Meilen, Tobel",8588032,47.282265,8.618733
"Meilen, Vorderer Pfannenstiel",8588033,47.285786,8.680295
"Meilen, Zur Au",8588034,47.273272999999996,8.661807000000001
"Uster, Bordacker",8588050,47.351994,8.729334
"Uster, Dammstrasse",8588051,47.35345,8.715679
"Uster, Gschwader",8588052,47.35827000000001,8.712778
"Uster, Haberweid",8588053,47.361877,8.713506
"Uster, Meieracher",8588054,47.360046000000004,8.714592999999999
"Uster, Oberlandstrasse",8588055,47.354355,8.715752
"Uster, Talweg",8588056,47.348515,8.730781
"Uster, Himmelriich",8588057,47.356834,8.7294235
"Uster, Wageren",8588058,47.351902,8.727106
"Uster, Weidli",8588059,47.353996,8.730637
"Zürich, Central",8588078,47.376841999999996,8.54394
"Dänikon, Rotflue",8588094,47.447052,8.395914999999999
"Gutenswil, Grossenacher",8588095,47.382065000000004,8.716838000000001
"Volketswil, Hofwisen",8588096,47.381096,8.672982000000001
"Volketswil, Gries",8588097,47.385979999999996,8.679316
"Gutenswil, Sternen",8588098,47.385365,8.71877
"Erlenbach ZH, Allmend",8588205,47.306305,8.605339
"Tagelswangen, Gerenhalde",8588279,47.431404,8.66797
"Effretikon, Brüttenerstrasse",8588311,47.431957000000004,8.686035
"Effretikon, Kapelle Rikon",8588312,47.432926,8.689044
Baltenswil,8588313,47.430912,8.640527
"Dietlikon, Bahnhof",8588314,47.420357,8.619083
"Kloten, Grindel",8588315,47.447384,8.606767999999999
"Bassersdorf, Dietlikonerstr.",8588316,47.441463,8.62937
"Bassersdorf, Bächli",8588317,47.438922999999996,8.635738
"Brüttisellen, Ob. Wangenstr.",8588318,47.42582,8.634849
"Brüttisellen, Zentrum",8588319,47.423846999999995,8.630699
"Nürensdorf, Lindauerstrasse",8588469,47.444195,8.653561
Kleinikon,8588502,47.456818,8.685702000000001
"Zürich Flughafen, Fracht",8588553,47.452496000000004,8.572057000000001
"Grafstal, Engelacher",8588735,47.442257,8.700389999999999
"Kloten, Ackerstrasse",8588736,47.45483400000001,8.587157000000001
"Kloten, Geissbergstrasse",8588737,47.45487,8.59155
"Kloten, Härdlen",8588738,47.45571500000001,8.589924
"Kloten, Lägernstrasse",8588739,47.445095,8.575892
"Kloten, Neubrunnenstrasse",8588740,47.444878,8.57875
"Wallisellen, Kaserne",8588744,47.416855,8.585531
"Wallisellen, Steinacker",8588745,47.418808,8.581947
"Horgen, Gehren",8588984,47.252109999999995,8.601414
"Horgen, Heubach",8588985,47.254771999999996,8.597919000000001
"Volketswil, Zimikon",8589106,47.385178,8.6723175
"Oberrieden, Tannenbach",8589108,47.26919,8.582441000000001
"Horgen, Säntisstrasse",8589109,47.26468,8.585989999999999
"Horgen, Widmerheim",8589110,47.26719,8.584445
"Horgen, Gumelenstrasse",8589111,47.260857,8.592305
"Volketswil, Chammwisen",8589128,47.38836,8.677384
"Bergdietikon, Baltenschwil",8590200,47.393066,8.392555
"Bergdietikon, Bergli",8590201,47.391125,8.389573
"Bergdietikon, Bernold",8590202,47.388034999999995,8.388126
"Bergdietikon, Dünni",8590203,47.3945,8.393130000000001
"Bergdietikon, Rietwies",8590204,47.393209999999996,8.390714
"Bergdietikon, Vorbühl",8590205,47.389362,8.38536
"Dietikon, Bahnhofstrasse",8590217,47.40429,8.404135
"Dietikon, Gjuchstrasse",8590218,47.407963,8.3932295
"Dietikon, Kirchplatz",8590219,47.405148,8.403686
"Dietikon, Marmori-Weiher",8590220,47.39928,8.394478
"Dietikon, Oetwilerstrasse",8590222,47.40586500000001,8.3981695
"Dietikon, Stadthaus",8590223,47.40255,8.400694
"Kindhausen AG, Eichholz",8590241,47.394196,8.380517999999999
"Spreitenbach, ASP",8590268,47.41421,8.379521
"Spreitenbach, Breiti",8590269,47.429474,8.359551
"Spreitenbach, Brüel",8590270,47.41795,8.372083
"Spreitenbach, Dorf",8590271,47.419273,8.367125
"Spreitenbach, Fegistrasse",8590272,47.430252,8.369819
"Spreitenbach, Furttalstrasse",8590273,47.42639000000001,8.365516
"Spreitenbach, Härdlistrasse",8590274,47.43193400000001,8.368885
"Spreitenbach, IKEA",8590275,47.42007,8.375478999999999
"Spreitenbach, Interio",8590276,47.427085999999996,8.364402
"Spreitenbach, Langäcker",8590277,47.423183,8.363109
"Spreitenbach, Rotzenbühl",8590278,47.425470000000004,8.361186
"Spreitenbach, Shopping Center",8590279,47.42041,8.368777
"Würenlos, Büntenstrasse",8590314,47.44482,8.367636
"Zürich, Farbhof",8590318,47.391132,8.479171000000001
"Spreitenbach, Spreiti West",8590396,47.429207,8.357889
"Spreitenbach, Center Spreitenb",8590397,47.422394,8.36946
"Adlikon b. R., Pächterried",8590461,47.44589600000001,8.470044
"Adlikon b. R., Leematten",8590462,47.452587,8.467062
"Adliswil, Badstrasse",8590463,47.31365200000001,8.53325
"Adliswil, Bahnhof",8590464,47.31193,8.5244465
"Adliswil, Baumgartenweg",8590465,47.309692,8.525766
"Adliswil, Bodenacker",8590466,47.316475,8.517439
"Adliswil, Büchel",8590467,47.301224,8.522111
"Adliswil, Eichenweg",8590468,47.320004,8.533689500000001
"Adliswil, Feldblumenstrasse",8590469,47.31459,8.519173
"Adliswil, Friedhof",8590470,47.306885,8.529638
"Adliswil, Baldernstrasse",8590471,47.320679999999996,8.515614999999999
"Adliswil, Grüt",8590472,47.322117,8.528929
"Adliswil, Hofackerstrasse",8590473,47.315135999999995,8.535765
"Adliswil, Krone",8590474,47.312943,8.527823
"Adliswil, Landolt-Junker-Str.",8590475,47.30346,8.52238
"Adliswil, Ahornweg",8590476,47.31879,8.53439
"Adliswil, Moos",8590477,47.325455,8.531049000000001
"Adliswil, Poststrasse",8590478,47.313225,8.525084
"Adliswil, Zopf",8590479,47.319107,8.516361
"Adliswil, Rifertstrasse",8590480,47.31012,8.531543
"Adliswil, Rütistrasse/Wacht",8590481,47.30702,8.532199
"Adliswil, Schulhaus Kopfholz",8590482,47.308853000000006,8.534382
"Adliswil, Tiefacker",8590484,47.316720000000004,8.529917
"Adliswil, Tobelhof",8590485,47.30915,8.528516
"Adliswil, Wanneten-/Haldenstr.",8590486,47.305915999999996,8.522469500000001
"Aesch bei Maur, Im Brünneli",8590487,47.330566,8.654729
"Aesch bei Maur, Zollingerheim",8590488,47.326683,8.656345
"Bassersdorf, Chlupfgasse",8590503,47.444626,8.624626
"Benglen, Gerlisbrunnen",8590504,47.361088,8.633610000000001
"Binz bei Maur, Fridlimatt",8590505,47.358932,8.625156
"Brütten, Zelgli",8590506,47.47142,8.673872
"Brüttisellen, Gsellhof",8590507,47.421707,8.629665
"Brüttisellen, Haldenbrücke",8590508,47.41881,8.631364
"Dübendorf, Sport Heerenschürli",8590510,47.404379999999996,8.596051
"Dietikon, Birmensdorferstrasse",8590512,47.39758,8.417394
"Dietikon, Dörfli",8590513,47.40041,8.406623
"Dietikon, Rapidplatz",8590514,47.41119000000001,8.404539
"Dietikon, Hagackerstrasse",8590515,47.41753,8.396795
"Dietikon, Hätschen",8590516,47.402065,8.393839999999999
"Dietikon, Hofacker",8590517,47.39826,8.411672
"Dietikon, Lätten",8590518,47.40218,8.385154
"Dietikon, Lerzen",8590519,47.41764000000001,8.399086
"Dietikon, Moosmatt",8590520,47.419445,8.393858
"Dietikon, Oberdorf",8590521,47.401737,8.396374
"Dietikon, Pestalozzi",8590523,47.41434,8.398781
"Dietikon, Schäflibach",8590525,47.400005,8.411078
"Dietikon, Schönenwerd",8590526,47.397175,8.424662
"Dietikon, Silbern",8590528,47.418198,8.392951
"Dietikon, Sommerau",8590529,47.403079999999996,8.405105
"Dietikon, Stadthalle Ost",8590531,47.405506,8.390274
"Dietikon, Staffelackerstrasse",8590532,47.4019,8.390813
"Dietikon, Stelzenacker",8590533,47.40432,8.391809
"Dietikon, Vorstadt",8590535,47.409121999999996,8.397874
"Dietikon, Weidstrasse",8590536,47.400726,8.388262
"Dietikon, Weinberg",8590537,47.400826,8.381910000000001
"Dietlikon, Aegert",8590538,47.412067,8.621437
"Dietlikon, Bahnhof/Bad",8590539,47.421963,8.620809
"Dietlikon, Brandbachstrasse",8590540,47.41696500000001,8.624653
"Dietlikon, Dornenstrasse",8590541,47.416584,8.616892
"Dietlikon, Dübendorferstrasse",8590542,47.413506,8.619558999999999
"Dietlikon, Hofwiesen",8590543,47.42639000000001,8.618518
"Dietlikon, Hörnligraben",8590544,47.41214,8.614547
"Dietlikon, Industriestrasse",8590545,47.41425,8.621949
"Dübendorf, Alterszentrum",8590547,47.38791,8.620395
"Dübendorf, Bahnhof Nord",8590548,47.400738,8.624258
"Dübendorf, Bauhof",8590549,47.394816999999996,8.63458
"Dübendorf, Bettlistrasse",8590550,47.39705,8.625614
"Dübendorf, Branzenäsch",8590551,47.394665,8.631157
"Dübendorf, Breitibach",8590552,47.395720000000004,8.605879
"Dübendorf, Chriesmatt",8590553,47.405468,8.625193
"Dübendorf, City Center",8590554,47.397,8.6164875
"Dübendorf, Claridenstrasse",8590555,47.39488,8.628714
"Dübendorf, Eglishölzli",8590556,47.405871999999995,8.630996000000001
"Dübendorf, EMPA",8590557,47.40187,8.611439
"Dübendorf, Flugplatz",8590558,47.40238,8.627402
"Dübendorf, Gfenn",8590559,47.39307,8.647461
"Dübendorf, Giessen",8590561,47.40215,8.607657000000001
"Dübendorf, Glärnischstrasse",8590562,47.39624,8.629935000000001
"Dübendorf, Grüzenstrasse",8590563,47.39129000000001,8.617161
"Dübendorf, Heidenrietstrasse",8590565,47.394295,8.652007000000001
"Dübendorf, Hoffnung",8590566,47.396088,8.599177000000001
"Dübendorf, Högler",8590567,47.39178,8.614717500000001
"Dübendorf, Im Grund",8590568,47.401554,8.617583
"Dübendorf, Kämmaten",8590569,47.38949,8.596653
"Dübendorf, Kirche Wil",8590570,47.389336,8.618203
"Dübendorf, Kreuzbühl",8590571,47.388153,8.62151
"Dübendorf, Kunsteisbahn",8590573,47.389216999999995,8.628911
"Dübendorf, Lindenbühl",8590574,47.394909999999996,8.645745
"Dübendorf, Lindenplatz",8590575,47.398506,8.6202965
"Dübendorf, Meiershofstrasse",8590576,47.3967,8.613603999999999
"Dübendorf, Memphis",8590577,47.399925,8.616317
"Wallisellen, Neugut",8590578,47.40483,8.60427
"Dübendorf, Neugut Süd",8590579,47.402843,8.601360000000001
"Dübendorf, Post",8590580,47.396167999999996,8.61691
"Dübendorf, Raubbühl",8590581,47.391556,8.634876
"Dübendorf, Ringstrasse",8590582,47.40015,8.607271
"Dübendorf, Ringwiesen",8590583,47.397533,8.604217
"Dübendorf, Schossacher",8590584,47.394890000000004,8.640239
"Dübendorf, Schwimmbad",8590586,47.396515,8.623153
"Dübendorf, Sonnenberg",8590587,47.393055,8.633367
"Dübendorf, Sonnental",8590588,47.395435,8.603660000000001
"Dübendorf, Stadthaus",8590589,47.39689,8.620027
"Dübendorf, Sunnhalde",8590590,47.390537,8.632468
"Dübendorf, Unterdorf",8590591,47.39867,8.618275
"Dübendorf, Wasserfurren",8590592,47.394295,8.610684
"Dübendorf, Zelglistrasse",8590593,47.39393,8.617467
"Dübendorf, Zwinggarten",8590594,47.40427800000001,8.619713
"Ebmatingen, Leeacherstrasse",8590596,47.35477,8.634391
"Ebmatingen, Looren",8590597,47.340702,8.652312
"Egetswil, Dorf",8590600,47.471916,8.582433
"Egg, Station",8590601,47.301586,8.690113
"Fahrweid, Brunaustrasse",8590602,47.414417,8.414043
"Fahrweid, Limmatbrücke",8590603,47.407596999999996,8.411887
"Fällanden, Bruggacher",8590604,47.37453,8.633617999999998
"Fällanden, Eggler",8590605,47.37159000000001,8.634714
"Fällanden, Gemeindehaus",8590606,47.37181500000001,8.640167
"Fällanden, Industrie",8590607,47.37612,8.644353
"Fällanden, Jugendherberge",8590608,47.35972,8.653597
"Fällanden, Neuhus",8590609,47.36851,8.645135
"Fällanden, Schützenhaus",8590610,47.368626,8.632478
"Fällanden, Wigarten",8590611,47.371002000000004,8.64217
"Fällanden, Zil",8590612,47.372246000000004,8.636214
"Forch, Bahnhof",8590613,47.325745,8.649564
"Geroldswil, Dorfstrasse",8590614,47.41984,8.413136
"Geroldswil, Grindlen",8590615,47.41673,8.414392999999999
"Geroldswil, Schweizäcker",8590616,47.42288,8.404377
"Geroldswil, Welbrig",8590617,47.41807,8.419064500000001
"Geroldswil, Zentrum",8590618,47.421455,8.409444
"Glanzenberg, Bahnhof",8590619,47.398709999999994,8.419586
"Glattbrugg, Bahnhof",8590620,47.43057,8.559355
"Glattbrugg, Frohbühlstrasse",8590621,47.428093,8.557361
"Glattbrugg, Giebeleichstrasse",8590622,47.42855,8.563514
"Glattbrugg, Halden",8590623,47.428093,8.56964
"Glattbrugg, Lättenwiesen",8590625,47.428123,8.565697
"Glattbrugg, Lindberghplatz",8590626,47.42521,8.560505000000001
"Glattbrugg, Mode Center TMC",8590627,47.424065,8.559328
"Glattbrugg, Oberhusen",8590628,47.427013,8.569703
"Glattbrugg, Post",8590629,47.43054,8.561115
"Glattbrugg, Zentrum",8590631,47.433376,8.565750999999999
"Glattbrugg, Zil",8590632,47.422733,8.576862
"Glattpark, Chavez-Allee",8590633,47.422709999999995,8.561169999999999
"Glattpark, Lindbergh-Allee",8590634,47.424236,8.564178
"Gockhausen, Ursprungstrasse",8590635,47.38485,8.600048
"Greifensee, Im Langacher",8590636,47.364525,8.685137
"Greifensee, Pfisterhölzli",8590637,47.364384,8.690617
"Greifensee, Städtli",8590638,47.365322,8.678139
"Greifensee, Tumigerstrasse",8590639,47.366264,8.679756
"Greifensee, Im Hof",8590640,47.36489,8.681319
"Herrliberg, Busenhardstrasse",8590641,47.29096,8.610505
"Herrliberg, Kirche Wetzwil",8590642,47.29657,8.625461999999999
"Herrliberg, Oberdorfweg",8590643,47.286970000000004,8.616506
"Herrliberg, Rain",8590644,47.292866,8.607109
"Herrliberg, Rebberg",8590645,47.288784,8.614736
"Herrliberg, Wetzwil",8590646,47.294703999999996,8.630789
"Herrliberg-Feldmeilen,Bhf West",8590647,47.28252,8.61178
"Hinteregg, Station",8590648,47.305862,8.684059
"Horgen, Altersheim/Tödistrasse",8590650,47.261837,8.584633
"Horgen, Dorfgasse",8590651,47.2601,8.599015
"Horgen, Glärnischhof",8590652,47.254475,8.609264999999999
"Horgen, Käpfnach",8590653,47.254463,8.615867999999999
"Horgen, Panorama/CS",8590655,47.258144,8.587067999999999
"Horgen, Rotweg",8590658,47.25676,8.608412
"Horgen, Schärbächli/Fähre",8590659,47.259296,8.602483
"Horgen, Schinzenhof",8590660,47.26058,8.597444
"Horgen, Teufenbach",8590661,47.256252,8.605079
"Horgen, Wannenthal",8590663,47.256546,8.602321
"Horgenberg, Nordecke",8590665,47.259879999999995,8.578156
"Itschnach, Rebweg",8590668,47.32659,8.59809
"Itschnach, Tägermoos",8590669,47.325866999999995,8.594011
"Kilchberg ZH, Altersheim",8590670,47.319893,8.5407505
"Kilchberg ZH, Auf Brunnen",8590671,47.31877,8.545753999999999
"Kilchberg ZH, Bächlerstrasse",8590672,47.329033,8.5396
"Kilchberg ZH, Bahnhof",8590673,47.32438300000001,8.54808
"Kilchberg ZH, Bendlikon",8590674,47.32209,8.550605000000001
"Kilchberg ZH, Gottlieb-Binder",8590675,47.322975,8.542834
"Kilchberg ZH, Hornhaldenstr.",8590677,47.33210800000001,8.541846000000001
"Kilchberg ZH, Kirche",8590678,47.31777,8.541514
"Kilchberg ZH, Spital",8590679,47.321709999999996,8.535378
"Kilchberg ZH, Kreuzstrasse",8590680,47.324562,8.545395
"Kilchberg ZH, Lindt & Sprüngli",8590681,47.319072999999996,8.5511265
"Kilchberg ZH, Mythenstrasse",8590682,47.32636,8.540669
"Kilchberg ZH, Paradiessteig",8590683,47.32969,8.543149
"Kilchberg ZH, Paradiesstrasse",8590684,47.32872800000001,8.547217999999999
"Kilchberg ZH, Sanatorium",8590685,47.32711,8.544452
"Kilchberg ZH, Schlimbergstr.",8590686,47.32477,8.543005
"Kilchberg ZH, Schooren",8590687,47.31772,8.5533
"Kilchberg ZH, Schoorenstrasse",8590688,47.317307,8.549491
"Kilchberg ZH,Schulhaus Dorfstr",8590689,47.32176,8.547792999999999
"Kilchberg ZH, Schwelle",8590690,47.32168,8.545233
"Kilchberg ZH, Stockengut",8590691,47.324112,8.540372999999999
"Kilchberg ZH, Weinbergstrasse",8590692,47.331984999999996,8.543283
"Kloten, Breitistrasse/Bahnhof",8590693,47.447956,8.584139
"Kloten, Buchhalden",8590694,47.44457,8.5954485
"Kloten, Obstgartenstrasse",8590696,47.451206,8.5774555
"Kloten, Schluefweg",8590697,47.446059999999996,8.581309
"Kloten, Schulstrasse",8590698,47.445842999999996,8.587669
"Kloten, Stadthaus",8590699,47.450745,8.5812645
"Kloten, Wallisellenstrasse",8590700,47.444164,8.589862
"Küsnacht ZH, Gartenstrasse",8590701,47.3115,8.587525
"Küsnacht ZH, Hallenbad",8590702,47.313564,8.5851
"Küsnacht ZH, Oberfeld",8590703,47.31248,8.589179
"Küsnacht ZH, Reform. Kirche",8590704,47.316593,8.583905
"Küsnacht ZH, Zentrum",8590705,47.31828,8.581876
"Langnau am Albis, Altersheim",8590706,47.286488,8.533842
"Langnau am Albis, Hehlstrasse",8590707,47.284366999999996,8.537094
"Langnau am Albis, Langmoos",8590708,47.283122999999996,8.534399
"Langnau am Albis, Unterrengg",8590709,47.281086,8.537714
"Lindau, Nürensdorferstrasse",8590710,47.440807,8.670862
"Maur, Aschbach",8590712,47.351902,8.660810000000001
"Maur, Dorf",8590713,47.340503999999996,8.670081
"Maur, Kirche",8590714,47.33785,8.674006
"Maur, Platten",8590715,47.343357,8.660721
"Maur, See",8590716,47.340070000000004,8.678659
"Nänikon, Grossriet",8590720,47.374046,8.680798
"Nänikon, Heuwinkelstrasse",8590721,47.36933,8.682586
"Neuhaus bei Hinteregg, Station",8590722,47.31328,8.6726055
"Niederhasli, Bahnhof",8590723,47.478275,8.488541
"Oberengstringen, Eggbühl",8590725,47.405525,8.474086999999999
"Oberengstringen, Lanzrain",8590726,47.40734000000001,8.467951
"Oberengstringen, Paradies",8590727,47.410484000000004,8.458743
"Oberengstringen, Zentrum",8590728,47.40913,8.462606
"Oberhasli, Dorf",8590729,47.465317,8.500515
"Oberhasli, Hasliberg",8590730,47.468734999999995,8.503156
"Oberhasli, Moosacker",8590731,47.470620000000004,8.499042
"Oberhasli, Post",8590732,47.468109999999996,8.500749
"Oberhasli, Spielplatz",8590733,47.471911999999996,8.499877
"Oberrieden Dorf, Bahnhof",8590734,47.276913,8.577662
"Oberrieden, Hubstrasse",8590735,47.27944,8.574626
"Oberrieden, Wattenbühlweg",8590736,47.273272999999996,8.580159
"Oetwil an der Limmat, Halde",8590737,47.425373,8.400136999999999
"Oetwil an der Limmat, Oberdorf",8590738,47.427734,8.398143
"Oetwil an der Limmat, Post",8590739,47.427486,8.394864
"Opfikon, Aublick",8590740,47.42468,8.577528
"Opfikon, Austrasse",8590741,47.425036999999996,8.57521
"Opfikon, Bahnhof",8590742,47.4296,8.561653999999999
"Opfikon, Bubenholz",8590743,47.434498,8.571689
"Opfikon, Dorf",8590744,47.43222,8.577941000000001
"Opfikon, Fernsicht",8590745,47.42349,8.581965
"Opfikon, Grätzli",8590746,47.424923,8.581372
"Opfikon, Grossacker",8590747,47.42677,8.579091
"Opfikon, Neuwiesen",8590748,47.42804,8.574339
"Opfikon, Vreniker",8590750,47.428318,8.579594
"Pfaffhausen, Feldhof",8590751,47.364067,8.62009
"Pfaffhausen, Pfaffenstein",8590752,47.368557,8.628561
"Pfaffhausen, Sängglen",8590753,47.36705,8.624761
"Regensdorf, Altersheim",8590754,47.434494,8.467322
"Regensdorf, Moosächer",8590755,47.43943400000001,8.456533
"Regensdorf, Feldblumenstrasse",8590756,47.43603,8.46443
"Regensdorf, Pumpwerkstrasse",8590757,47.44612,8.462373
"Regensdorf, Querstrasse",8590758,47.44458,8.462067
"Regensdorf, Strassenverkehrs.",8590759,47.439713,8.46168
"Regensdorf, Zentrum Ost",8590760,47.43022,8.470116
"Rümlang, Bäuler",8590762,47.435078000000004,8.55754
"Rümlang, Letten",8590765,47.438747,8.53475
"Rümlang, Oberdorf",8590766,47.451965,8.530285000000001
"Rümlang, Gemeindehaus",8590767,47.450066,8.529827000000001
"Rümlang, Riedmattstrasse",8590768,47.461594,8.527492
"Rüschlikon, Bahnhof",8590771,47.30818,8.5535965
"Rüschlikon, Belvoir",8590772,47.30704,8.548655499999999
"Rüschlikon, Bodengasse",8590773,47.31042,8.552707
"Rüschlikon, Eggrain",8590775,47.304559999999995,8.544308000000001
"Rüschlikon, Langhaldenstrasse",8590776,47.306072,8.551108000000001
"Rüschlikon, Loorain",8590777,47.307365000000004,8.541999
"Rüschlikon, Moosstrasse",8590779,47.302611999999996,8.54544
"Rüschlikon, Park im Grüene",8590780,47.300373,8.550371
"Rüschlikon, Rebsteig",8590781,47.312355,8.550767
"Rüschlikon, Säumerstrasse",8590782,47.30811,8.546167
"Rüschlikon, Schlossstrasse",8590783,47.313686,8.553794
"Rüschlikon, Weidstrasse",8590784,47.30571,8.55294
"Scheuren, Station",8590785,47.321743,8.661062
"Schlieren, Bahnhof",8590786,47.399433,8.448547
"Schlieren, Bahnhof Nord",8590787,47.399822,8.448197
"Schlieren, Brunngasse",8590788,47.39649,8.448062
"Schlieren, Färbiweg",8590789,47.401379999999996,8.445071
"Schlieren, Feldstrasse",8590790,47.403420000000004,8.447891
"Schlieren, Gasometerbrücke",8590791,47.397606,8.460603
"Schlieren, Heimeliweg",8590792,47.39456,8.43748
"Schlieren, Industrie Gaswerk",8590793,47.40095,8.463011
"Schlieren, Kesslerstrasse",8590794,47.39638,8.438872
"Schlieren, Mülligen",8590795,47.395523,8.467798
"Schlieren, Nassacker",8590796,47.39485,8.441738
"Schlieren, Reitmen",8590797,47.39711,8.433384
"Schlieren, Rietbachstrasse",8590798,47.400406,8.439214
"Schlieren, Rütistrasse",8590799,47.400806,8.45374
"Schlieren, Spital Limmattal",8590800,47.392616,8.429753999999999
"Schlieren, Steinacker",8590801,47.39618,8.426377
"Schlieren, Talacker-Windegg",8590802,47.40562,8.447811
"Schlieren, Wagonsfabrik",8590803,47.398514,8.454180000000001
"Schlieren, Zentrum",8590804,47.397265999999995,8.447488
"Schlieren, Zentrum/Bahnhof",8590805,47.39824,8.447102000000001
"Schwerzenbach ZH, Dorf",8590806,47.3805,8.651997999999999
"Sihlwald, Bahnhof",8590807,47.268417,8.557316
"Thalwil, Aegertli",8590811,47.2966,8.559660000000001
"Thalwil, Alterszentrum",8590812,47.285571999999995,8.56982
"Thalwil, Archstrasse",8590813,47.296078,8.561727000000001
"Thalwil, Aubrigstrasse",8590814,47.287594,8.570089
"Thalwil, Böni",8590815,47.284855,8.565284
"Thalwil, Gewerbestrasse",8590817,47.28652,8.56637
"Thalwil, In Reben",8590818,47.291940000000004,8.567933
"Thalwil, Mettli",8590819,47.282185,8.573
"Thalwil, Oeggisbüelplatz",8590820,47.285354999999996,8.571195
"Thalwil, Pilgerweg",8590822,47.298275,8.561205000000001
"Thalwil, Platte",8590823,47.289986,8.568374
"Thalwil, Post",8590824,47.29676,8.562705000000001
"Thalwil, Rainstrasse",8590825,47.28695,8.571715
"Thalwil, Rudishaldenstrasse",8590826,47.29357,8.559345
"Thalwil, Seehaldenstrasse",8590828,47.297295,8.554522
"Thalwil, Trotte",8590829,47.291195,8.56603
"Thalwil, Zehntenstrasse",8590830,47.289898,8.57052
"Unterengstringen, Aegelsee",8590831,47.41497800000001,8.446033
"Unterengstringen, Eckstein",8590832,47.410484000000004,8.449033
"Unterengstringen, Langacher",8590833,47.412234999999995,8.453165
"Urdorf Weihermatt, Bahnhof",8590834,47.380093,8.429971
"Urdorf, Feldegg",8590837,47.39180800000001,8.427339
"Urdorf, Heinrich-Stutz-Strasse",8590838,47.370426,8.424706
"Urdorf, Herweg",8590839,47.393642,8.417914999999999
"Urdorf, Luberzen",8590840,47.393814,8.423377
"Urdorf, Neumatt",8590841,47.387207000000004,8.4204035
"Urdorf, Neumattstrasse",8590842,47.38718400000001,8.422388
"Urdorf, Niederurdorf",8590843,47.390335,8.4185705
"Urdorf, Oberurdorf",8590844,47.37875,8.423349
"Urdorf, Rainweg",8590845,47.389404,8.425335
"Urdorf, Schlierenstrasse",8590846,47.391163,8.423152
"Urdorf, Sonne",8590847,47.38126,8.422532
"Urdorf, Spitzacker",8590848,47.384342,8.421823
"Urdorf, Uitikonerstrasse",8590849,47.382259999999995,8.425928
"Volketswil, Chappeli",8590851,47.38945800000001,8.674896
"Volketswil, Milandia",8590852,47.37827,8.67424
"Regensdorf-Watt, Bahnhof",8590878,47.4371,8.473099000000001
"Waldburg, Station",8590879,47.34539,8.593302
"Wallisellen, Alterszentrum",8590880,47.418526,8.595467
"Wallisellen, Belair",8590881,47.41431,8.585819
"Wallisellen, Blumenweg",8590882,47.413113,8.604486
"Wallisellen, Bützacker",8590883,47.421585,8.6003895
"Wallisellen, Florastrasse",8590884,47.4117,8.597273
"Wallisellen, Furtbach",8590885,47.411514000000004,8.608107
"Wallisellen, Gemeindehaus",8590886,47.41637,8.591021000000001
"Wallisellen, Guyer-Weg",8590887,47.417614,8.598692
"Wallisellen, Hallenbad",8590888,47.417846999999995,8.593454
"Wallisellen, Herti",8590889,47.416496,8.579073
"Wallisellen, Ifang",8590890,47.410121999999994,8.604989
"Wallisellen, Lindenplatz",8590892,47.419914,8.598495
"Wallisellen, Riedenerstrasse",8590894,47.411007,8.601611
"Wallisellen, Rosenberg",8590895,47.41235,8.5978565
"Wallisellen, Schäfligraben",8590896,47.423668,8.599375
"Wallisellen, Spitzacker",8590897,47.410976,8.605591
"Wallisellen, Sportzentrum",8590898,47.414772,8.606875
"Wallisellen, Zentrum",8590899,47.414013,8.591254
"Wallisellen, Zielacker",8590900,47.414577,8.604880999999999
"Wangen b D'dorf, Dorfplatz",8590901,47.41043,8.645889
"Wangen b D'dorf, Hätzelwisen",8590902,47.41032,8.642727
"Wangen b D'dorf, Oberdorf",8590903,47.407955,8.645997
"Wangen b D'dorf, Stierwisen",8590904,47.40933,8.641703999999999
"Wangen b D'dorf, Weidli",8590905,47.412457,8.639861999999999
"Wangen, Flugsicherungsstrasse",8590906,47.40806,8.6375885
"Watt, Brünigstrasse",8590908,47.44613,8.48165
"Weiningen ZH, Aegelsee",8590910,47.415703,8.444559
"Weiningen ZH, Ausserdorf",8590911,47.417683000000004,8.439537
"Weiningen ZH, Lindenplatz",8590913,47.419556,8.433941
"Weiningen ZH, Schulhaus",8590914,47.41835,8.428668
"Zollikerb., Langägerten/Spital",8591023,47.34682,8.598153
"Zollikerberg, Hasenbart",8591024,47.34998,8.597102
"Zollikerberg, Oberhueb",8591025,47.344592999999996,8.617969500000001
"Zollikerberg, Resirain",8591026,47.348495,8.60701
"Zollikerberg, Sennhof",8591027,47.34763,8.615553
"Zollikerberg, Station",8591028,47.346226,8.602644999999999
"Zollikerberg, Trichtenhauserm.",8591029,47.35062,8.601953
"Zürich Flughafen, REGA",8591031,47.458447,8.57291
"Zürich Flughafen, Werkhof",8591032,47.44412,8.550013
"Zürich, Aargauerstrasse",8591033,47.392105,8.501314
"Zürich, Albisgütli",8591034,47.351994,8.507710000000001
"Zürich, Albisrank",8591035,47.379818,8.494667
"Zürich, Albisrieden",8591036,47.374386,8.484785
"Zürich, Albisriederdörfli",8591037,47.375316999999995,8.485217
"Zürich, Albisriederplatz",8591038,47.378212,8.510396
"Zürich, Alte Trotte",8591039,47.397766,8.507253
"Zürich, Altenhofstrasse",8591040,47.355305,8.561411999999999
"Zürich, Althoos",8591041,47.410706,8.52406
"Zürich, Am Börtli",8591043,47.399628,8.507145
"Zürich, Am Suteracher",8591044,47.391234999999995,8.469406
"Zürich, Appenzellerstrasse",8591045,47.39891,8.509525
"Zürich, Aspholz",8591046,47.425087,8.5005865
"Zürich, Aubrücke",8591047,47.41088,8.572128
"Zürich, Ausserdorfstrasse",8591048,47.424515,8.548557
"Zürich, Auzelg",8591049,47.41669,8.568113
"Zürich, Auzelg Ost",8591050,47.41334000000001,8.572165
"Zürich, Bachmattstrasse",8591051,47.388923999999996,8.483051
"Zürich, Bäckeranlage",8591052,47.378334,8.522874
"Zürich, Bad Allenmoos",8591053,47.405895,8.537786500000001
"Zürich Affoltern, Bahnhof",8591054,47.421184999999994,8.507414
"Zürich Altstetten, Bahnhof",8591056,47.391106,8.488379
"Zürich Altstetten, Bahnhof N",8591057,47.392067,8.489906
"Zürich Enge, Bahnhof",8591058,47.364129999999996,8.531569500000002
"Zürich Enge, Bahnhof/Bederstr.",8591059,47.364554999999996,8.530456
"Zürich Hardbrücke, Bahnhof",8591060,47.384933000000004,8.5170355
"Zürich Leimbach, Bahnhof",8591061,47.333252,8.518597999999999
"Zürich Oerlikon, Bahnhof Nord",8591062,47.41254,8.541909
"Zürich Oerlikon, Bahnhof Ost",8591063,47.413338,8.545844
"Zürich Selnau, Bahnhof",8591064,47.370670000000004,8.532010000000001
"Stettbach, Bahnhof",8591065,47.397273999999996,8.596131
"Zürich Wipkingen, Bahnhof",8591066,47.393444,8.529522
"Zürich, Bahnhofstrasse/HB",8591067,47.376556,8.539942
"Zürich, Bändliweg",8591068,47.396355,8.48501
"Zürich, Baslerstrasse",8591070,47.388767,8.490149
"Zürich, Beckenhof",8591071,47.384083000000004,8.540445
"Zürich, Berghaldenstrasse",8591072,47.358505,8.590023
"Zürich, Berninaplatz",8591073,47.40364,8.54791
"Zürich, Bernoulli-Häuser",8591074,47.393764000000004,8.508708
"Zürich, Bertastrasse",8591075,47.373585,8.513828
"Zürich, Berufswahlschule",8591076,47.404377000000004,8.533331
"Zürich, Besenrainstrasse",8591077,47.34548,8.52786
"Zürich, Bethanien",8591078,47.3812,8.555204
"Zürich, Bezirksgebäude",8591079,47.37417,8.52556
"Zürich Wollishofen, Bhf (Bus)",8591080,47.347588,8.534346000000001
"Zürich Wollishofen, Bhf (Tram)",8591081,47.347034,8.532917
"Zürich, Billoweg",8591082,47.351463,8.531974
"Zürich, Grubenstrasse",8591083,47.36284000000001,8.511672
"Zürich, Binz Center",8591084,47.3619,8.511052000000001
"Zürich, Birch-/Glatttalstrasse",8591085,47.427402,8.546141
"Zürich, Birchdörfli",8591086,47.407536,8.5306
"Zürich, Bircher-Benner",8591087,47.375735999999996,8.564798
"Zürich, Birchstrasse",8591088,47.413044,8.535853999999999
"Zürich, Bleulerstrasse",8591089,47.347176,8.571589
"Zürich, Blumenfeldstrasse",8591090,47.42415,8.503974000000001
"Zürich, Bollingerweg",8591092,47.414284,8.537903
"Zürich, Börsenstrasse",8591093,47.368168,8.539744
"Zürich, Botanischer Garten",8591094,47.35934,8.557837
"Zürich, Brandschenkestrasse",8591095,47.369366,8.533627000000001
"Zürich, Bristenstrasse",8591097,47.39008,8.487059
"Zürich, Brunau/Mutschellenstr.",8591098,47.35515,8.527141
"Zürich, Brunaustrasse",8591100,47.356133,8.532216
"Zürich, Bucheggplatz",8591101,47.39841,8.533285000000001
"Zürich, Buchholz",8591102,47.360928,8.588702
"Zürich, Buhnstrasse",8591103,47.42225300000001,8.538945
"Zürich, Burgwies",8591104,47.35802,8.571859
"Zürich, Bürkliplatz",8591105,47.366825,8.540338
"Zürich, Butzenstrasse",8591106,47.341409999999996,8.530313
"Zürich, Carl-Spitteler-Strasse",8591107,47.358321999999994,8.586592
"Zürich, Chaletweg",8591108,47.413371999999995,8.5312195
"Zürich, Chinagarten",8591109,47.354515,8.55295
"Zürich, Dammweg",8591110,47.388493,8.526396
"Zürich, Dangelstrasse",8591111,47.33455,8.52998
"Zürich, Dorflinde",8591112,47.40744,8.5487995
"Zürich, Dreispitz",8591113,47.410796999999995,8.567169999999999
"Zürich, Drusbergstrasse",8591115,47.360344,8.578839
"Zürich, Dunkelhölzli",8591116,47.388884999999995,8.470053
"Zürich, Einfangstrasse",8591118,47.415703,8.51293
"Zürich, Englischviertelstrasse",8591119,47.366734,8.558178
"Zürich, EPI-Klinik",8591120,47.348648,8.570656
"Zürich, Eschergutweg",8591121,47.39627,8.512039999999999
"Zürich, ETH Hönggerberg",8591122,47.40868,8.507710000000001
"Zürich, ETH/Universitätsspital",8591123,47.37668,8.548888999999999
"Zürich, Ettenfeld",8591124,47.42546,8.553633
"Zürich, Fellenbergstrasse",8591126,47.375717,8.488415
"Zürich, Felsenrainstrasse",8591127,47.41679,8.545296
"Zürich, Fernsehstudio",8591128,47.418175,8.561744000000001
"Zürich, Feusisbergli",8591130,47.395363,8.471024
"Zürich, Fischerweg",8591131,47.393570000000004,8.512121
"Zürich, Flobotstrasse",8591132,47.380577,8.568042
"Zürich, Flühgasse",8591133,47.35046,8.569479
"Zürich, Flurstrasse",8591134,47.38133,8.491945
"Zürich, Förrlibuckstrasse",8591135,47.392216,8.517152000000001
"Zürich, Frankental",8591136,47.4057,8.481372
"Zürich, Freiestrasse",8591137,47.3628,8.562975
"Zürich, Freihofstrasse",8591138,47.383224,8.499374000000001
"Zürich, Friedackerstrasse",8591140,47.405937,8.553192
"Zürich, Friedhof Eichbühl",8591141,47.382877,8.474536
"Zürich, Friedhof Enzenbühl",8591142,47.350970000000004,8.5802765
"Zürich, Friedhof Hönggerberg",8591143,47.40894,8.494137
"Zürich, Friedhof Schwandenholz",8591144,47.42135,8.537759
"Zürich, Friedhof Sihlfeld",8591145,47.37593,8.510891
"Zürich, Friedhof Uetliberg",8591146,47.358707,8.500605
"Zürich, Friedhof Witikon",8591147,47.361343,8.602824
"Zürich, Friedrichstrasse",8591148,47.40394000000001,8.569065
"Zürich, Friesenberg",8591149,47.364290000000004,8.5079975
"Zürich, Friesenberghalde",8591150,47.36112,8.502400999999999
"Zürich, Friesenbergstrasse",8591151,47.362064000000004,8.505096
"Zürich, Frohburg",8591152,47.404236,8.562615
"Zürich, Fronwald",8591153,47.421963,8.510046
"Zürich, Frymannstrasse",8591154,47.335133,8.519146000000001
"Zürich, Geeringstrasse",8591155,47.414444,8.480437
"Zürich, Germaniastrasse",8591156,47.387295,8.552527
"Zürich, Giblenstrasse",8591158,47.41073,8.485953
"Zürich, Glattwiesen",8591159,47.401604,8.581758500000001
"Zürich, Glaubtenstrasse",8591160,47.414097,8.519335
"Zürich, Glaubtenstrasse Süd",8591161,47.41366,8.518688000000001
"Zürich, Glockenacker",8591162,47.360977,8.599302
"Zürich, Goldackerweg",8591163,47.37189,8.487929
"Zürich, Goldauerstrasse",8591164,47.386204,8.550156
"Zürich, Grimselstrasse",8591165,47.386967,8.490086
"Zürich, Grünaustrasse",8591167,47.39523,8.489214
"Zürich, Guggachstrasse",8591168,47.39571,8.54014
"Zürich, Güterbahnhof",8591169,47.380309999999994,8.519973
"Zürich, Gutstrasse",8591170,47.372,8.506084
"Zürich, Hadlaubstrasse",8591171,47.3865,8.551144
"Zürich, Hagenholz",8591172,47.414406,8.555528
"Zürich, Haldenbach",8591173,47.380295000000004,8.548377
"Zürich, Haldenegg",8591174,47.37965,8.544514999999999
"Zürich, Hallenbad Oerlikon",8591175,47.410706,8.5558605
"Zürich, Hardhof",8591176,47.39635,8.49747
"Zürich, Hardplatz",8591177,47.382343,8.514528
"Zürich, Hardturm",8591178,47.394165,8.504503
"Zürich, Hedwigsteig",8591180,47.360424,8.565032
"Zürich, Heerenwiesen",8591181,47.404716,8.576333
"Zürich, Hegianwandweg",8591182,47.356334999999994,8.510216999999999
"Zürich, Helmhaus",8591183,47.370067999999996,8.543292999999998
"Zürich, Helvetiaplatz",8591184,47.376358,8.525362
"Zürich, Herbstweg",8591185,47.408527,8.5649605
"Zürich, Herdernstrasse",8591186,47.38483,8.509166
"Zürich, Hertensteinstrasse",8591187,47.42288,8.54349
"Zürich, Herzogenmühlestrasse",8591188,47.40753,8.572703
"Zürich, Heubeeriweg",8591189,47.381657000000004,8.564619
"Zürich, Heuried",8591190,47.369409999999995,8.506354
"Zürich, Himmeri",8591191,47.419876,8.538657
"Zürich, Hinterbergstrasse",8591192,47.37962,8.555276
"Zürich, Hirschwiesenstrasse",8591193,47.399998,8.543211999999999
"Zürich, Hirzenbach",8591194,47.40325,8.591164
"Zürich, Höfliweg",8591195,47.367943,8.511034
"Zürich, Hofstrasse",8591196,47.373363,8.561556
"Zürich, Hohenklingensteig",8591197,47.40135,8.490211500000001
"Zürich, Hölderlinsteig",8591198,47.367,8.565041
"Zürich, Hölderlinstrasse",8591199,47.365759999999995,8.563011
"Zürich, Holzerhurd",8591200,47.4238,8.496616
"Zürich, Hönggerberg",8591201,47.404934000000004,8.504736999999999
"Zürich, Hottingerplatz",8591202,47.369473,8.554405000000001
"Zürich, Hubertus",8591203,47.376872999999996,8.499473
"Zürich, Hügelstrasse",8591204,47.358543,8.526997999999999
"Zürich, Hürlimannplatz",8591205,47.365066999999996,8.526539
"Zürich, Hürstholz",8591206,47.416885,8.522865
"Zürich, Im Ebnet",8591207,47.43124,8.543859
"Zürich, Im Gut",8591208,47.373615,8.503363
"Zürich, Im Hagacker",8591209,47.35927,8.507710000000001
"Zürich, Im Hüsli",8591210,47.328236,8.512696
"Zürich, Im Klösterli",8591211,47.38463,8.576935
"Zürich, Im Walder",8591212,47.348118,8.574366
"Zürich, Im Wingert",8591213,47.40143,8.508833000000001
"Zürich, In der Ey",8591214,47.36924000000001,8.491631
"Zürich, Juchhof",8591215,47.398434,8.474877000000001
"Zürich, Jugendherberge",8591216,47.34800300000001,8.528210000000001
"Zürich, Kalchbühlweg",8591217,47.341815999999994,8.531049000000001
"Zürich,Kalkbreite/Bhf.Wiedikon",8591218,47.3746,8.521006
"Zürich, Kanonengasse",8591219,47.378468,8.530303
"Zürich, Kantonsschule",8591220,47.37272,8.550524000000001
"Zürich, Kapfstrasse",8591221,47.361153,8.571203
"Zürich, Kappeli",8591222,47.385353,8.494927
"Zürich, Kappenbühlweg",8591223,47.402966,8.498242
"Zürich, Käshaldenstrasse",8591224,47.43002,8.540903
"Zürich, Genossenschaftsstrasse",8591225,47.41520300000001,8.562373
"Zürich, Kempfhofsteig",8591226,47.397304999999996,8.510028
"Zürich, Kernstrasse",8591227,47.3745,8.524266
"Zürich, Kienastenwies",8591228,47.355152000000004,8.601162
"Zürich, Kinkelstrasse",8591229,47.388884999999995,8.546338
"Zürich, Kirche Fluntern",8591230,47.376602,8.560235
"Zürich, Klosbach",8591231,47.37003,8.564152
"Zürich, Klusplatz",8591233,47.364036999999996,8.566496
"Zürich, Köschenrüti",8591234,47.429382000000004,8.536942
"Zürich, Krematorium Nordheim",8591235,47.405590000000004,8.528022
"Zürich, Krematorium Sihlfeld",8591236,47.377804,8.507873
"Zürich, Kronenstrasse",8591237,47.38796,8.5391245
"Zürich, Krönleinstrasse",8591238,47.384192999999996,8.561034
"Zürich, Kunsthaus",8591239,47.370438,8.549141
"Zürich, Lägernstrasse",8591240,47.39566,8.532046000000001
"Zürich, Landiwiese",8591241,47.35099,8.534228
"Zürich, Langensteinenstrasse",8591242,47.39242,8.549365
"Zürich, Langgrütstrasse",8591243,47.37374000000001,8.501063
"Zürich, Langmauerstrasse",8591244,47.39354,8.544784
"Zürich, Laubegg",8591245,47.35873,8.517089
"Zürich, Laubiweg",8591246,47.394985,8.53634
"Zürich, Lehenstrasse",8591247,47.396233,8.520152000000001
"Zürich, Leimgrübelstrasse",8591248,47.42870300000001,8.544245
"Zürich, Lerchenhalde",8591249,47.411633,8.509875
"Zürich, Lerchenrain",8591250,47.41429,8.509489
"Zürich, Lettenstrasse",8591251,47.390570000000004,8.532738
"Zürich, Letzigrund",8591252,47.381237,8.503731
"Zürich, Letzipark",8591253,47.387775,8.499212
"Zürich, Letzipark West",8591254,47.386368,8.496464
"Zürich, Letzistrasse",8591255,47.390682,8.545494
"Zürich, Leutschenbach",8591256,47.414642,8.551306
"Zürich, Limmatplatz",8591257,47.384598,8.531624
"Zürich, Lindenplatz",8591258,47.387817,8.486115
"Zürich, Lochergut",8591259,47.375347,8.517916
"Zürich, Loogarten",8591260,47.38942700000001,8.472325999999999
"Zürich, Loorenstrasse",8591261,47.359863,8.594522999999999
"Zürich, Löwenplatz",8591262,47.37589000000001,8.537417
"Zürich, Luchswiesen",8591263,47.406876000000004,8.585873
"Zürich, Luegisland",8591264,47.406009999999995,8.581389999999999
"Zürich, Luggwegstrasse",8591265,47.389435,8.493571000000001
"Zürich, Maienweg",8591266,47.40785,8.526386
"Zürich, Maillartstrasse",8591267,47.416206,8.5321
"Zürich, Manegg",8591268,47.336967,8.5203495
"Zürich, Manesseplatz",8591269,47.365444000000004,8.521633999999999
"Zürich, Marbachweg",8591270,47.33035,8.515373
"Zürich, Mattenhof",8591271,47.39864,8.590921
"Zürich, Max-Bill-Platz",8591272,47.414047,8.541333999999999
"Zürich, Messe/Hallenstadion",8591273,47.41069,8.550686
"Zürich, Micafil",8591274,47.39288300000001,8.474886
"Zürich, Michelstrasse",8591275,47.406326,8.495602
"Zürich, Milchbuck",8591276,47.39749000000001,8.541927000000001
"Zürich, Militär-/Langstrasse",8591277,47.3796,8.527626
"Zürich, Mittelleimbach",8591278,47.32314,8.514286
"Zürich, Morgental",8591279,47.34395,8.530142
"Zürich, Mötteliweg",8591280,47.413956,8.526459
"Zürich, Mühlacker",8591281,47.425632,8.498
"Zürich, Museum für Gestaltung",8591282,47.382121999999995,8.534939
"Zürich, Museum Rietberg",8591283,47.36072,8.531561
"Zürich, Neeserweg",8591284,47.390926,8.473969
"Zürich, Neuaffoltern",8591285,47.411846000000004,8.525030000000001
"Zürich, Neubühl",8591286,47.33293,8.534947
"Zürich, Neumarkt",8591287,47.372776,8.547353
"Zürich, Neunbrunnen",8591289,47.416702,8.538208000000001
"Zürich, Nordheimstrasse",8591290,47.40358,8.5310755
"Zürich, Nordstrasse",8591291,47.388329999999996,8.53616
"Zürich, Nürenbergstrasse",8591292,47.392258,8.533439
"Zürich, Oberwiesenstrasse",8591293,47.41048,8.532819
"Zürich, Oerlikerhus",8591294,47.417587,8.554207
"Zürich, Okenstrasse",8591296,47.388011999999996,8.534139
"Zürich, Orionstrasse",8591297,47.41672,8.566173
"Zürich, Ottikerstrasse",8591298,47.38519,8.542413
"Zürich, Paradeplatz",8591299,47.369366,8.538765
"Zürich, Paulus-Akademie",8591300,47.356907,8.590562
"Zürich, Pflegezentr. Käferberg",8591302,47.39965,8.5177
"Zürich, Platte",8591303,47.375008,8.552644
"Zürich, Post Wollishofen",8591304,47.34447,8.532962
"Zürich, Probstei",8591305,47.400223,8.586592
"Zürich, Quellenstrasse",8591306,47.38674,8.528749000000001
"Zürich, Radiostudio",8591307,47.40198,8.53519
"Zürich, Räffelstrasse",8591308,47.362747,8.514664
"Zürich, Rathaus",8591309,47.37174,8.542879
"Zürich, Rautihalde",8591310,47.386173,8.474105
"Zürich, Rautistrasse",8591311,47.383347,8.484094
"Zürich, Rebbergsteig",8591312,47.396904,8.514969
"Zürich, Regensbergbrücke",8591314,47.408825,8.539277
"Zürich, Rehalp",8591315,47.35103,8.582980000000001
"Zürich, Rennweg",8591316,47.373065999999994,8.53846
"Zürich, Rentenanstalt",8591317,47.363388,8.535036999999999
"Zürich, Riedbach",8591318,47.41448,8.558187
"Zürich, Riedgraben",8591319,47.410645,8.559265
"Zürich, Riedhofstrasse",8591320,47.409927,8.479575
"Zürich, Röntgenstrasse",8591322,47.381935,8.529261
"Zürich, Rosengartenstrasse",8591323,47.39433,8.525461
"Zürich, Röslistrasse",8591324,47.388659999999994,8.540499
"Zürich, Roswiesen",8591325,47.402954,8.57698
"Zürich, Rotbuchstrasse",8591326,47.391277,8.536116
"Zürich, Rudolf-Brun-Brücke",8591327,47.37435,8.543239
"Zürich, Rütihof",8591328,47.413452,8.477311
"Zürich, Saalsporthalle",8591329,47.357859999999995,8.520404
"Zürich, Saatlenstrasse",8591330,47.41081,8.562867
"Zürich, Sackzelg",8591331,47.374386,8.495511
"Zürich, Salersteig",8591332,47.406082,8.548475999999999
"Zürich, Salzweg",8591333,47.387707,8.471769
"Zürich, SBB-Werkstätte",8591334,47.386562,8.503371000000001
"Zürich, Schaffhauserplatz",8591335,47.39163,8.538712
"Zürich, Schäppiweg",8591336,47.38974,8.550892999999999
"Zürich, Schauenberg",8591338,47.4162,8.506929
"Zürich, Scheuchzerstrasse",8591339,47.38779,8.544236
"Zürich, Schlyfi",8591340,47.362595,8.574141000000001
"Zürich, Schmiede Wiedikon",8591341,47.37015,8.519263
"Zürich, Schönauring",8591342,47.426132,8.536348
"Zürich, Schörlistrasse",8591343,47.405945,8.563873
"Zürich, Schulhaus Altweg",8591344,47.372276,8.4942
"Zürich, Schulhaus Buchlern",8591345,47.384594,8.47777
"Zürich, Schumacherweg",8591346,47.412098,8.51479
"Zürich, Schürgistrasse",8591347,47.408836,8.579594
"Zürich, Schützenhaus Höngg",8591348,47.409733,8.497047
"Zürich, Schwamendingerplatz",8591349,47.404587,8.5715
"Zürich, Schwandenholz",8591350,47.42386,8.520682
"Zürich, Schweighof",8591351,47.364773,8.502697999999999
"Zürich, Schweizer Rück",8591352,47.359882,8.535513
"Zürich, Schwert",8591353,47.39973,8.504611
"Zürich, Seebach",8591354,47.421864,8.549779
"Zürich, Seebacherplatz",8591355,47.419865,8.548368
"Zürich, Seerose",8591357,47.338913,8.5381365
"Zürich, Segantinistrasse",8591358,47.407444,8.489968
"Zürich, Segeten",8591360,47.355774,8.59297
"Zürich, Seidelhof",8591361,47.3918,8.484345
"Zürich, Seilbahn Rigiblick",8591362,47.385914,8.548368
"Zürich, Siemens",8591363,47.378582,8.494496
"Zürich, Signaustrasse",8591364,47.363228,8.557621000000001
"Zürich, Sihlcity",8591365,47.35797,8.522264
"Zürich, Sihlcity Nord",8591366,47.36006500000001,8.523036
"Zürich, Sihlpost/HB",8591367,47.376095,8.534202
"Zürich, Sihlquai/HB",8591368,47.379875,8.537606
"Zürich, Sihlstrasse",8591369,47.37227,8.53457
"Zürich, Sihlweidstrasse",8591370,47.326415999999995,8.514664
"Zürich, Singlistrasse",8591371,47.40511,8.49349
"Zürich, Solidapark",8591372,47.387726,8.488496000000001
"Zürich, Sonneggstrasse",8591373,47.382843,8.543688000000001
"Zürich, Sportweg",8591374,47.391727,8.504997
"Zürich, Sprecherstrasse",8591375,47.367492999999996,8.552258
"Zürich, Spyriplatz",8591376,47.382057,8.552222
"Zürich, Spyristeig",8591377,47.386253,8.556202
"Zürich, Stadtgrenze",8591378,47.33504,8.54147
"Zürich, Stampfenbachplatz",8591379,47.37996,8.542808
"Zürich, Staudenbühl",8591380,47.420082,8.535388000000001
"Zürich, Stauffacher",8591381,47.373425,8.529252
"Zürich, Sternen Oerlikon",8591382,47.410072,8.54623
"Zürich, Stierenried",8591383,47.416393,8.533914999999999
"Zürich, Stockerstrasse",8591384,47.3677,8.53501
"Zürich, Strassenverkehrsamt",8591385,47.353072999999995,8.511716999999999
"Zürich, Strickhof",8591386,47.393723,8.547344
"Zürich, Sukkulentensammlung",8591387,47.354927,8.534301
"Zürich, Sunnau",8591388,47.327084,8.529612
"Zürich, Susenbergstrasse",8591389,47.378536,8.568006
"Zürich, Talwiesenstrasse",8591390,47.369946,8.509651
"Zürich, Technopark",8591391,47.38879,8.515652000000001
"Zürich, Thujastrasse",8591392,47.350184999999996,8.527806
"Zürich, Tierspital",8591393,47.4019,8.5518
"Zürich, Titlisstrasse",8591394,47.37097,8.564950999999999
"Zürich, Tobelhof",8591396,47.38349,8.587202
"Zürich, Toblerplatz",8591397,47.37909000000001,8.559345
"Zürich, Toni-Areal",8591398,47.39004,8.510585
"Zürich, Trichtenhausenfussweg",8591399,47.3542,8.598602
"Zürich, Trichtisal",8591400,47.353912,8.601072
"Zürich, Triemlispital",8591401,47.366386,8.496769
"Zürich, Tüffenwies",8591402,47.39798,8.494344
"Zürich, Tulpenstrasse",8591403,47.405964000000004,8.568886000000001
"Zürich, Tunnelstrasse",8591404,47.366141999999996,8.532531
"Zürich, Uetlihof",8591405,47.356735,8.513963
"Zürich, Universität Irchel",8591406,47.396159999999995,8.544828
"Zürich, Unteraffoltern",8591407,47.424587,8.511842999999999
"Zürich, Untermoosstrasse",8591408,47.37983,8.483384
"Zürich, Verenastrasse",8591410,47.340824,8.52538
"Zürich, Vogelsangstrasse",8591411,47.38354,8.549069
"Zürich, Voltastrasse",8591412,47.376870000000004,8.554522
"Zürich, Vulkanstrasse",8591413,47.39435,8.484085
"Zürich, Waffenplatz-/Bederstr.",8591414,47.36166400000001,8.526504
"Zürich, Waffenplatzstrasse",8591415,47.36148,8.525748
"Zürich, Waidbadstrasse",8591416,47.39897,8.513539999999999
"Zürich, Waidfussweg",8591417,47.395496,8.5184
"Zürich, Waidhof",8591418,47.423943,8.524778
"Zürich, Waidspital",8591419,47.399165999999994,8.521707000000001
"Zürich, Waldgarten",8591420,47.40423,8.557674
"Zürich, Waldhaus Dolder",8591421,47.37324,8.568544000000001
"Zürich, Wartau",8591423,47.402770000000004,8.491631
"Zürich, Waserstrasse",8591424,47.35873,8.582441000000001
"Zürich, Weihersteig",8591425,47.39779,8.528516
"Zürich, Werd",8591427,47.372326,8.526845
"Zürich, Werdhölzli",8591428,47.39783,8.482018
"Zürich, Wetlistrasse",8591429,47.360157,8.568625
"Zürich, Widmerstrasse",8591430,47.33677700000001,8.53289
"Zürich, Wieslergasse",8591431,47.404064,8.49596
"Zürich, Wiesliacher",8591432,47.355213,8.596805999999999
"Zürich, Winkelriedstrasse",8591433,47.383194,8.548216
"Zürich, Winzerhalde",8591434,47.400059999999996,8.494568
"Zürich, Winzerstrasse",8591435,47.403766999999995,8.486376
"Zürich, Winzerstrasse Süd",8591436,47.403374,8.486124
"Zürich, Wipkingerplatz",8591437,47.39259000000001,8.523575
"Zürich, Witikon Zentrum",8591438,47.35918,8.585244
"Zürich, Wollishofen",8591439,47.33844000000001,8.530159
"Zürich, Wonnebergstrasse",8591440,47.35185,8.566541
"Zürich, Zielweg",8591441,47.35882,8.497586
"Zürich, Zoo",8591442,47.38157,8.571553999999999
"Zürich, Zoo/Forrenweid",8591443,47.3805,8.578094
"Zürich, Zürichbergstrasse",8591444,47.37873,8.564107
"Zürich, Zweiackerstrasse",8591445,47.35705,8.597883
"Zürich, Zwielplatz",8591446,47.402187,8.496805
"Zürich, Zwinglihaus",8591447,47.37151,8.515957
"Zürich, Zypressenstrasse",8591448,47.376694,8.513765
"Zürich, Binz",8591824,47.362965,8.518329
"Benglen, Bodenacher",8591825,47.361129999999996,8.638613000000001
"Binz bei Maur, Post",8591826,47.357094000000004,8.627968
"Ebmatingen, Dorf",8591828,47.35139,8.641003
"Fahrweid, Au",8591829,47.411648,8.414294
"Glattpark, Glattpark",8591830,47.419956,8.557162
"Gockhausen, Dorf",8591831,47.382008,8.598081
"Pfaffhausen, Müseren",8591832,47.362697999999995,8.617547
"Unterengstringen, Sennenbüel",8591833,47.413166,8.448754
"Uster, Loren-Allee",8591857,47.35822,8.709607
"Spreitenbach, Altersheim",8591891,47.41884,8.368588
"Dietikon, Gyrhalden",8591893,47.400677,8.391855
"Zürich, Würzgraben",8591896,47.392258,8.492583
"Zollikerberg, Spital",8591903,47.34835,8.596042
"Zürich Flughafen, Im Rohr",8593523,47.44563,8.549050999999999
"Unterengstringen, Langwisen",8593529,47.409046000000004,8.448053
"Horgen, Wannerstrasse",8594182,47.262985,8.590966
"Glattpark, Wright-Strasse",8594185,47.42052,8.559211
"Wallisellen, Haldenstrasse",8594186,47.415459999999996,8.596886999999999
"Wallisellen, Friedhof",8594187,47.415264,8.593653
"Wallisellen, Schulhaus Bürgli",8594188,47.41553,8.599581
"Wallisellen, Säntisstrasse",8594189,47.413025,8.600622999999999
"Wallisellen, Guggenbühlstrasse",8594190,47.41364,8.59695
"Wallisellen, Glatt (Tram)",8594198,47.409294,8.598063
"Rümlang, Hörnlistrasse",8594236,47.445686,8.530663
"Zürich, Schiffbau",8594239,47.387572999999996,8.519442999999999
"Benglen, Langwis",8594249,47.36141,8.630016
"Binz bei Maur, Bautacher",8594250,47.357708,8.630061
"Kilchberg ZH, Breitloo",8594252,47.326190000000004,8.539439
"Kilchberg ZH, Emilienheim",8594253,47.329209999999996,8.538145
"Kilchberg ZH, Obere Hornhalde",8594254,47.331565999999995,8.538117999999999
"Zürich, Schanzackerstrasse",8594255,47.392025,8.547433999999999
"Dübendorf, Hochbord",8594261,47.40125,8.601728
"Würenlos, Altwiesen",8594304,47.43417,8.36168
"Würenlos, Lärchenweg",8594307,47.43849,8.364385
"Würenlos, Steigass",8594310,47.435898,8.362668
"Brüttisellen, Neuwisen",8594338,47.416424,8.634103999999999
"Illnau, Dorfplatz",8594339,47.40773,8.724428999999999
"Dielsdorf, Ruchwiesen",8594552,47.481007,8.463908
"Opfikon, Schwimmbad",8594553,47.432644,8.571553999999999
"Unterengstringen, Sennenbüel N",8594732,47.413494,8.449311
"Dietlikon, Fuchshalde",8595073,47.42003,8.612616000000001
"Dietlikon, Hinentalstrasse",8595074,47.42554000000001,8.608196000000001
"Dietlikon, In Lampitzäckern",8595075,47.417225,8.614951
"Dietlikon, Klimmweg",8595076,47.430553,8.616928
"Dietlikon, Lettenstrasse",8595077,47.42457,8.611861
"Dietlikon, Lindenstrasse",8595078,47.430797999999996,8.619425
"Dietlikon, Riedenerstrasse",8595080,47.422979999999995,8.614152
"Dietlikon, Zentrum",8595081,47.42301,8.618248
"Effretikon, Oberkempttal",8595082,47.431309999999996,8.705439
"Dietlikon, Pünten",8595128,47.428318,8.616586999999999
"Dietlikon, Rebackerweg",8595129,47.42855,8.619533
"Otelfingen, Landstrasse",8595143,47.45932,8.386725
"Nürensdorf, Zentrum",8595267,47.446728,8.648216
"Buchs ZH, Furttalstrasse",8595356,47.455296000000004,8.437758
"Thalwil, Sonnenberg",8595406,47.293682000000004,8.5563
"Horgen, Bergwerk",8595412,47.25512,8.612328999999999
"Dietikon, Heimstrasse",8595511,47.40854,8.405869000000001
"Tagelswangen, Herdlen",8595538,47.43434,8.6732435
"Effretikon, Weiherstrasse",8595706,47.433556,8.689888999999999
"Nürensdorf, Zentrum Süd",8595707,47.446220000000004,8.649455999999999
"Spreitenbach, Glattler",8595708,47.42082,8.363000999999999
"Rümlang, Heuelstrasse",8595709,47.452393,8.528471000000001
"Rümlang, Ifangstrasse",8595710,47.4486,8.536358
"Rümlang, Chilestieg",8595711,47.44682,8.525542
"Rümlang, Hofwisenunterführung",8595712,47.452263,8.53687
"Rümlang, Zürichweg",8595713,47.448837,8.527132
"Regensdorf, Allmend",8595714,47.44859,8.45665
"Adliswil, Grundstrasse",8595717,47.31295,8.530051
"Herrliberg-Feldmeilen, Bhf Ost",8595723,47.282795,8.612022
"Zürich, Glaubtenstrasse Nord",8595899,47.414745,8.5196495
"Dielsdorf, Gesundheitszentrum",8596003,47.47956,8.450596
"Binz bei Maur, Twäracher",8596005,47.360893,8.623476
"Schlieren, Meuchwis",8596006,47.400040000000004,8.435387
"Bassersdorf, Sportanlage",8596100,47.44446,8.610711
"Dübendorf, Hochbord Süd",8596113,47.399006,8.600462
"Zürich, Bus Station",8596126,47.381065,8.537301
